{
  "schools": [
    {
      "lat": 53.201822,
      "lon": 45.003868,
      "name": "Твиспо"
    },
    {
      "lat": 53.188781,
      "lon": 45.06722,
      "name": "Кадетская школа № 70"
    },
    {
      "lat": 53.201752,
      "lon": 45.020744,
      "name": "Гимназия №44"
    },
    {
      "lat": 53.200522,
      "lon": 45.008498,
      "name": "МОУ ЛСТУ№2 (2 корпус)"
    },
    {
      "lat": 53.215235,
      "lon": 45.004884,
      "name": "Детская музыкальная школа №2"
    },
    {
      "lat": 53.20809,
      "lon": 45.010092,
      "name": "ДЮСШ №6"
    },
    {
      "lat": 53.168746,
      "lon": 45.019,
      "name": "Центр технологического обучения"
    },
    {
      "lat": 53.17549,
      "lon": 45.005865,
      "name": "ДОУ № 26"
    },
    {
      "lat": 53.188601,
      "lon": 44.98525,
      "name": "Школа №30, коррекционное отделение"
    },
    {
      "lat": 53.186239,
      "lon": 44.971302,
      "name": "Школа №30"
    },
    {
      "lat": 53.183842,
      "lon": 44.966004,
      "name": "Спортивная школа №1"
    },
    {
      "lat": 53.220552,
      "lon": 44.920229,
      "name": "Многопрофильная гимназия №13"
    },
    {
      "lat": 53.220524,
      "lon": 44.924634,
      "name": "Школа №57"
    },
    {
      "lat": 53.227631,
      "lon": 44.930887,
      "name": "Школа № 39"
    },
    {
      "lat": 53.221494,
      "lon": 44.966113,
      "name": "Школа №9"
    },
    {
      "lat": 53.218169,
      "lon": 44.936451,
      "name": "Школа №63"
    },
    {
      "lat": 53.224632,
      "lon": 44.912782,
      "name": "Школа №64"
    },
    {
      "lat": 53.229564,
      "lon": 44.920217,
      "name": "Школа №56"
    },
    {
      "lat": 53.220402,
      "lon": 44.911643,
      "name": "Школа №36"
    },
    {
      "lat": 53.200687,
      "lon": 45.008435,
      "name": ""
    },
    {
      "lat": 53.220984,
      "lon": 44.946388,
      "name": "ДЮСШ №9"
    },
    {
      "lat": 53.227975,
      "lon": 44.929188,
      "name": "Детский сад №149"
    },
    {
      "lat": 53.225369,
      "lon": 44.984481,
      "name": "МБОУ СОШ №50"
    },
    {
      "lat": 53.221319,
      "lon": 44.995479,
      "name": ""
    },
    {
      "lat": 53.168569,
      "lon": 45.006418,
      "name": "Школа №25"
    },
    {
      "lat": 53.168809,
      "lon": 45.002076,
      "name": "Школа №28"
    },
    {
      "lat": 53.163649,
      "lon": 44.981229,
      "name": "Школа №32"
    },
    {
      "lat": 53.166136,
      "lon": 44.984839,
      "name": "Школа №65"
    },
    {
      "lat": 53.18656,
      "lon": 44.984551,
      "name": "Гимназия № 53"
    },
    {
      "lat": 53.169897,
      "lon": 44.982369,
      "name": "Кадетская школа №46"
    },
    {
      "lat": 53.211416,
      "lon": 44.975876,
      "name": "Школа №12"
    },
    {
      "lat": 53.186228,
      "lon": 44.971368,
      "name": ""
    },
    {
      "lat": 53.226359,
      "lon": 44.922696,
      "name": "Специальная (коррекционная) школа-интернат №54"
    },
    {
      "lat": 53.191909,
      "lon": 44.982694,
      "name": "Лицей № 55"
    },
    {
      "lat": 53.184693,
      "lon": 44.9674,
      "name": "Губернский лицей-интернат для одарённых детей"
    },
    {
      "lat": 53.199258,
      "lon": 45.006293,
      "name": ""
    },
    {
      "lat": 53.188551,
      "lon": 44.9852,
      "name": ""
    },
    {
      "lat": 53.218225,
      "lon": 44.939944,
      "name": "Детский сад №141"
    },
    {
      "lat": 53.225657,
      "lon": 44.914862,
      "name": "Детский сад №89 Солнышко"
    },
    {
      "lat": 53.234023,
      "lon": 44.93024,
      "name": "Гимназия №42"
    },
    {
      "lat": 53.185158,
      "lon": 45.059295,
      "name": "СОШ №77"
    },
    {
      "lat": 53.217574,
      "lon": 45.018412,
      "name": "Школа №47, корпус №2"
    },
    {
      "lat": 53.213251,
      "lon": 45.033859,
      "name": "Школа №41"
    },
    {
      "lat": 53.22513,
      "lon": 44.993888,
      "name": "Детская музыкальная школа №15"
    },
    {
      "lat": 53.208799,
      "lon": 44.986063,
      "name": "Финансово-экономический лицей №29"
    },
    {
      "lat": 53.176657,
      "lon": 45.01538,
      "name": "Школа № 7"
    },
    {
      "lat": 53.206637,
      "lon": 44.994679,
      "name": "Детская школа искусств"
    },
    {
      "lat": 53.192298,
      "lon": 45.040116,
      "name": "Школа №43"
    },
    {
      "lat": 53.180344,
      "lon": 45.040112,
      "name": "Школа №26"
    },
    {
      "lat": 53.214194,
      "lon": 44.971215,
      "name": "Школа №11"
    },
    {
      "lat": 53.174186,
      "lon": 45.038111,
      "name": "Духовная Семинария (бывш. школа № 46)"
    },
    {
      "lat": 53.186203,
      "lon": 45.011955,
      "name": "Многопрофильная гимназия №4"
    },
    {
      "lat": 53.197635,
      "lon": 44.965882,
      "name": "Школа-интернат для глухих детей"
    },
    {
      "lat": 53.150236,
      "lon": 45.01579,
      "name": "Школа № 60"
    },
    {
      "lat": 53.205106,
      "lon": 44.99264,
      "name": "школа № 58"
    },
    {
      "lat": 53.206778,
      "lon": 44.9833,
      "name": "Финансово-экономический лицей №29 Корпус 2"
    },
    {
      "lat": 53.220842,
      "lon": 44.9839,
      "name": ""
    },
    {
      "lat": 53.173411,
      "lon": 44.993399,
      "name": "МБОУ Средняя общеобразовательная школа №65/23"
    },
    {
      "lat": 53.212477,
      "lon": 45.054625,
      "name": "Школа № 66. Корпус № 1"
    },
    {
      "lat": 53.132248,
      "lon": 45.017776,
      "name": "Школа № 20"
    },
    {
      "lat": 53.192997,
      "lon": 45.02115,
      "name": "Школа №49"
    },
    {
      "lat": 53.221389,
      "lon": 44.980919,
      "name": "Школа №18"
    },
    {
      "lat": 53.228824,
      "lon": 44.91503,
      "name": ""
    },
    {
      "lat": 53.22128,
      "lon": 44.995398,
      "name": "Средняя школа №51"
    },
    {
      "lat": 53.163289,
      "lon": 45.027973,
      "name": "Школа №5"
    },
    {
      "lat": 53.212908,
      "lon": 44.979722,
      "name": "Школа №17"
    },
    {
      "lat": 53.155325,
      "lon": 44.980418,
      "name": "Школа № 61"
    },
    {
      "lat": 53.201059,
      "lon": 44.984949,
      "name": "Училище олимпийского резерва"
    },
    {
      "lat": 53.214322,
      "lon": 45.006228,
      "name": "Лингвистическая гимназия № 6"
    },
    {
      "lat": 53.272851,
      "lon": 45.020388,
      "name": ""
    },
    {
      "lat": 53.167048,
      "lon": 44.956985,
      "name": "Школа №75/62, корпус 2"
    },
    {
      "lat": 53.217151,
      "lon": 45.051411,
      "name": "Школа № 66. Корпус № 2"
    },
    {
      "lat": 53.200516,
      "lon": 44.994685,
      "name": "Лицей №2, корпус №3"
    },
    {
      "lat": 53.201476,
      "lon": 45.049244,
      "name": "Школа № 40"
    },
    {
      "lat": 53.184662,
      "lon": 45.005371,
      "name": "Гимназия №1 им. В. Г. Белинского"
    },
    {
      "lat": 53.155589,
      "lon": 44.964019,
      "name": "Школа №75/62"
    },
    {
      "lat": 53.164547,
      "lon": 44.985211,
      "name": "Центр образования"
    },
    {
      "lat": 53.232351,
      "lon": 44.922327,
      "name": "Школа № 52"
    },
    {
      "lat": 53.210798,
      "lon": 45.006367,
      "name": "Школа №47"
    },
    {
      "lat": 53.138593,
      "lon": 45.023859,
      "name": "Школа №59"
    },
    {
      "lat": 53.229656,
      "lon": 44.941088,
      "name": "Гимназия \"Сан\""
    },
    {
      "lat": 53.233313,
      "lon": 44.938289,
      "name": "СОШ №37"
    },
    {
      "lat": 53.141861,
      "lon": 45.026092,
      "name": "Школа №69"
    },
    {
      "lat": 53.229285,
      "lon": 45.014519,
      "name": "Лицей №3"
    },
    {
      "lat": 53.226587,
      "lon": 45.050322,
      "name": "Школа № 66. Корпус № 3"
    },
    {
      "lat": 53.243926,
      "lon": 45.007493,
      "name": "Школа №71"
    },
    {
      "lat": 53.201575,
      "lon": 45.020246,
      "name": ""
    },
    {
      "lat": 53.19172,
      "lon": 45.03017,
      "name": "Средняя общеобразовательная школа № 8"
    },
    {
      "lat": 53.165728,
      "lon": 45.00424,
      "name": "Дом детского творчества №2"
    },
    {
      "lat": 53.270303,
      "lon": 44.9254,
      "name": "Школа № 52"
    },
    {
      "lat": 53.221764,
      "lon": 44.972538,
      "name": "Пензенский многопрофильный колледж"
    },
    {
      "lat": 53.214177,
      "lon": 44.976786,
      "name": "Школа №27"
    },
    {
      "lat": 53.168413,
      "lon": 45.019002,
      "name": ""
    },
    {
      "lat": 53.130012,
      "lon": 45.044907,
      "name": "Школа № 1"
    },
    {
      "lat": 53.181593,
      "lon": 45.061759,
      "name": "Средняя общеборазовательная школа № 80 Имени В.К. Бочкарёва"
    },
    {
      "lat": 53.2629,
      "lon": 44.917375,
      "name": "СОШ № 38 имени Б.Ф. Зубкова"
    },
    {
      "lat": 53.220827,
      "lon": 44.983912,
      "name": "Пензенская православная гимназия"
    },
    {
      "lat": 53.215058,
      "lon": 45.004848,
      "name": "Детсмкая музыкальная школа № 2"
    }
  ],
  "kindergartens": [
    {
      "lat": 53.221974,
      "lon": 44.912549,
      "name": "Знайкин дом"
    },
    {
      "lat": 53.221634,
      "lon": 44.910515,
      "name": "Умка"
    },
    {
      "lat": 53.219787,
      "lon": 44.943556,
      "name": "Крошка.ру"
    },
    {
      "lat": 53.223099,
      "lon": 44.912096,
      "name": "Знайкин дом"
    },
    {
      "lat": 53.207309,
      "lon": 45.010115,
      "name": ""
    },
    {
      "lat": 53.184407,
      "lon": 45.06227,
      "name": "Шалунишки"
    },
    {
      "lat": 53.207251,
      "lon": 44.986424,
      "name": "Классики"
    },
    {
      "lat": 53.167517,
      "lon": 45.005931,
      "name": "Детский сад №150 «Алый парус»"
    },
    {
      "lat": 53.177288,
      "lon": 45.008251,
      "name": "Bambini Club"
    },
    {
      "lat": 53.199526,
      "lon": 45.002125,
      "name": "Полиглотики"
    },
    {
      "lat": 53.222418,
      "lon": 44.930631,
      "name": "ГородОК"
    },
    {
      "lat": 53.188377,
      "lon": 44.985257,
      "name": "Капелька"
    },
    {
      "lat": 53.188057,
      "lon": 44.984057,
      "name": "Детский сад №31, филиал №2"
    },
    {
      "lat": 53.188548,
      "lon": 44.983903,
      "name": "Детский сад №109, филиал №2"
    },
    {
      "lat": 53.185395,
      "lon": 44.973592,
      "name": "Детский сад №109, филиал №1"
    },
    {
      "lat": 53.187534,
      "lon": 44.983004,
      "name": "Детский сад №109, филиал №2, корпус №2"
    },
    {
      "lat": 53.185739,
      "lon": 44.970018,
      "name": "Детский сад №31"
    },
    {
      "lat": 53.219342,
      "lon": 44.919754,
      "name": "Детсад Звёздочка №136"
    },
    {
      "lat": 53.219776,
      "lon": 44.914043,
      "name": "Детсад №138 Гусельки"
    },
    {
      "lat": 53.220213,
      "lon": 44.927768,
      "name": "Детский сад №141"
    },
    {
      "lat": 53.219406,
      "lon": 44.925013,
      "name": "Детский сад №132, Рябинушка"
    },
    {
      "lat": 53.219431,
      "lon": 44.933598,
      "name": "Детский сад №17, Катюша"
    },
    {
      "lat": 53.21215,
      "lon": 44.971977,
      "name": "Детский сад №22"
    },
    {
      "lat": 53.225626,
      "lon": 44.983181,
      "name": ""
    },
    {
      "lat": 53.162067,
      "lon": 44.981608,
      "name": "Детский сад №7"
    },
    {
      "lat": 53.163155,
      "lon": 44.979395,
      "name": "Детский сад №59"
    },
    {
      "lat": 53.168696,
      "lon": 44.980393,
      "name": "Детский сад №150 Алый парус"
    },
    {
      "lat": 53.210607,
      "lon": 44.974116,
      "name": "Детский сад №21"
    },
    {
      "lat": 53.206004,
      "lon": 45.0072,
      "name": "Детский сад №117 \"РЖД\""
    },
    {
      "lat": 53.227436,
      "lon": 44.932445,
      "name": "Детский сад №121"
    },
    {
      "lat": 53.175625,
      "lon": 45.005729,
      "name": ""
    },
    {
      "lat": 53.245265,
      "lon": 45.011065,
      "name": "ДоОУ №144 Морозко"
    },
    {
      "lat": 53.198296,
      "lon": 45.005181,
      "name": "Детский сад №103 Ласточка"
    },
    {
      "lat": 53.187612,
      "lon": 44.98296,
      "name": ""
    },
    {
      "lat": 53.188595,
      "lon": 44.983869,
      "name": ""
    },
    {
      "lat": 53.188085,
      "lon": 44.984018,
      "name": ""
    },
    {
      "lat": 53.185585,
      "lon": 44.96982,
      "name": ""
    },
    {
      "lat": 53.232922,
      "lon": 44.928506,
      "name": ""
    },
    {
      "lat": 53.23323,
      "lon": 44.932388,
      "name": "Детский сад"
    },
    {
      "lat": 53.224978,
      "lon": 44.918643,
      "name": "Детский сад №149"
    },
    {
      "lat": 53.219465,
      "lon": 44.902954,
      "name": "Детский сад №142"
    },
    {
      "lat": 53.242917,
      "lon": 45.012509,
      "name": "Детский сад №60"
    },
    {
      "lat": 53.214949,
      "lon": 44.988724,
      "name": "Детский сад № 93"
    },
    {
      "lat": 53.185479,
      "lon": 45.061452,
      "name": "Детский сад № 5 \"Умка\""
    },
    {
      "lat": 53.199661,
      "lon": 44.992912,
      "name": "Детсад №88 Светлячок"
    },
    {
      "lat": 53.175064,
      "lon": 45.017227,
      "name": "Детский сад № 46"
    },
    {
      "lat": 53.206802,
      "lon": 44.992413,
      "name": "Детский сад № 99"
    },
    {
      "lat": 53.213538,
      "lon": 44.969754,
      "name": "Детский сад №145 (противотуберкулёзный)"
    },
    {
      "lat": 53.209916,
      "lon": 44.986873,
      "name": "Детский сад № 110"
    },
    {
      "lat": 53.204632,
      "lon": 44.99425,
      "name": "Детский сад № 88"
    },
    {
      "lat": 53.175335,
      "lon": 45.038298,
      "name": "Детский сад"
    },
    {
      "lat": 53.144432,
      "lon": 45.02566,
      "name": "Детский сад №147"
    },
    {
      "lat": 53.152172,
      "lon": 45.016953,
      "name": "Детский сад"
    },
    {
      "lat": 53.232958,
      "lon": 44.920526,
      "name": "Детский сад №130"
    },
    {
      "lat": 53.229081,
      "lon": 44.922761,
      "name": "Детский сад №129"
    },
    {
      "lat": 53.206273,
      "lon": 44.984723,
      "name": "Детский сад № 110"
    },
    {
      "lat": 53.212401,
      "lon": 45.002317,
      "name": "Детский сад №70"
    },
    {
      "lat": 53.182029,
      "lon": 45.045572,
      "name": "филиал детского сада №57"
    },
    {
      "lat": 53.185374,
      "lon": 44.973444,
      "name": ""
    },
    {
      "lat": 53.211768,
      "lon": 45.057454,
      "name": "Детский сад №124"
    },
    {
      "lat": 53.216171,
      "lon": 45.020025,
      "name": ""
    },
    {
      "lat": 53.214782,
      "lon": 45.020299,
      "name": ""
    },
    {
      "lat": 53.180237,
      "lon": 45.029809,
      "name": "Детский сад № 105"
    },
    {
      "lat": 53.213179,
      "lon": 44.981468,
      "name": "Детский сад"
    },
    {
      "lat": 53.159836,
      "lon": 44.979609,
      "name": "Детский сад №7, филиал №1"
    },
    {
      "lat": 53.219716,
      "lon": 45.042508,
      "name": "Детский сад №124"
    },
    {
      "lat": 53.178155,
      "lon": 45.002738,
      "name": "Детский сад № 25"
    },
    {
      "lat": 53.174819,
      "lon": 44.948541,
      "name": ""
    },
    {
      "lat": 53.21167,
      "lon": 45.05101,
      "name": "Детский сад"
    },
    {
      "lat": 53.218947,
      "lon": 45.051046,
      "name": "Детский сад №101"
    },
    {
      "lat": 53.179873,
      "lon": 44.984789,
      "name": "Детский сад №31, филиал №3"
    },
    {
      "lat": 53.183191,
      "lon": 45.065534,
      "name": "Детский сад № 5"
    },
    {
      "lat": 53.142688,
      "lon": 45.038595,
      "name": "Детский сад №1 Спутник"
    },
    {
      "lat": 53.227809,
      "lon": 44.923119,
      "name": "Детский сад №89"
    },
    {
      "lat": 53.171041,
      "lon": 45.012253,
      "name": "Филиал №3 \"Рябинушка\" детского сада №52 \"Полянка\""
    },
    {
      "lat": 53.245319,
      "lon": 45.008661,
      "name": "Детский сад №141 филиал №2"
    },
    {
      "lat": 53.216624,
      "lon": 44.973843,
      "name": "Детский сад № 111 \"Олененок\""
    },
    {
      "lat": 53.132018,
      "lon": 45.015012,
      "name": "Детский сад №17 Земляничка"
    },
    {
      "lat": 53.156357,
      "lon": 44.961353,
      "name": "Детский сад №52 Полянка"
    },
    {
      "lat": 53.217762,
      "lon": 45.049836,
      "name": "Детский сад №98"
    },
    {
      "lat": 53.234547,
      "lon": 44.939188,
      "name": ""
    },
    {
      "lat": 53.230283,
      "lon": 44.942235,
      "name": "Детский сад №122 «Малыш»"
    },
    {
      "lat": 53.134799,
      "lon": 45.017875,
      "name": "Детский сад №120 Аистёнок"
    },
    {
      "lat": 53.210021,
      "lon": 45.006709,
      "name": "ЦРТДиЮ №2"
    },
    {
      "lat": 53.137354,
      "lon": 45.026658,
      "name": "Детский сад №151"
    },
    {
      "lat": 53.209785,
      "lon": 45.004082,
      "name": "Детский сад №56"
    },
    {
      "lat": 53.183902,
      "lon": 45.047206,
      "name": ""
    },
    {
      "lat": 53.166605,
      "lon": 45.002973,
      "name": "Детский сад №150, филиал Калинка"
    },
    {
      "lat": 53.234561,
      "lon": 44.937615,
      "name": ""
    },
    {
      "lat": 53.140794,
      "lon": 45.02786,
      "name": "Детский сад № 147"
    },
    {
      "lat": 53.186526,
      "lon": 45.052534,
      "name": "Мозаика"
    },
    {
      "lat": 53.222212,
      "lon": 44.982229,
      "name": ""
    },
    {
      "lat": 53.200843,
      "lon": 45.00211,
      "name": "Детский сад №123"
    },
    {
      "lat": 53.265484,
      "lon": 44.911718,
      "name": ""
    },
    {
      "lat": 53.189845,
      "lon": 45.045192,
      "name": "Детский сад № 105 «Тополёк», филиал № 1"
    },
    {
      "lat": 53.22164,
      "lon": 44.996058,
      "name": ""
    },
    {
      "lat": 53.224124,
      "lon": 44.988444,
      "name": ""
    },
    {
      "lat": 53.140087,
      "lon": 45.041172,
      "name": "Детский сад №3 \"Росток\""
    },
    {
      "lat": 53.133657,
      "lon": 45.044134,
      "name": "Детский сад Лесная сказка"
    },
    {
      "lat": 53.207384,
      "lon": 45.010115,
      "name": "Детский сад №70 Буратино"
    },
    {
      "lat": 53.195755,
      "lon": 45.036721,
      "name": ""
    },
    {
      "lat": 53.17967,
      "lon": 44.988102,
      "name": "Детский сад №31 Волшебная страна"
    },
    {
      "lat": 53.182856,
      "lon": 45.059749,
      "name": "Детский сад №4 Мозаика"
    },
    {
      "lat": 53.182634,
      "lon": 45.060641,
      "name": "Детский сад №4 Солнышко"
    },
    {
      "lat": 53.169255,
      "lon": 44.921603,
      "name": "Детский сад №59"
    },
    {
      "lat": 53.164978,
      "lon": 45.025649,
      "name": "Детский сад"
    },
    {
      "lat": 53.156796,
      "lon": 45.013977,
      "name": "Детский сад"
    },
    {
      "lat": 53.131452,
      "lon": 45.04696,
      "name": "Карусель"
    },
    {
      "lat": 53.130944,
      "lon": 45.047785,
      "name": ""
    },
    {
      "lat": 53.13153,
      "lon": 45.030268,
      "name": ""
    },
    {
      "lat": 53.219916,
      "lon": 44.986581,
      "name": "Детский сад № 139 Берёзка, филиал № 2"
    },
    {
      "lat": 53.189946,
      "lon": 44.970972,
      "name": "Детский сад 109"
    }
  ],
  "hospitals": [
    {
      "lat": 53.201187,
      "lon": 44.978459,
      "name": "Детская обл. больница"
    },
    {
      "lat": 53.222563,
      "lon": 44.975798,
      "name": "Поликлиника Химмаш"
    },
    {
      "lat": 53.179522,
      "lon": 45.003893,
      "name": "Дневной стационар"
    },
    {
      "lat": 53.179283,
      "lon": 45.003525,
      "name": "Глазной травмпункт"
    },
    {
      "lat": 53.136872,
      "lon": 45.02207,
      "name": ""
    },
    {
      "lat": 53.208787,
      "lon": 45.001926,
      "name": "Поликлиника"
    },
    {
      "lat": 53.192326,
      "lon": 45.01424,
      "name": "Центр микрохирургии глаза"
    },
    {
      "lat": 53.194697,
      "lon": 45.038997,
      "name": "Городская стоматологическая поликлиника"
    },
    {
      "lat": 53.23369,
      "lon": 44.926289,
      "name": ""
    },
    {
      "lat": 53.175456,
      "lon": 45.015003,
      "name": ""
    },
    {
      "lat": 53.201102,
      "lon": 45.023901,
      "name": ""
    },
    {
      "lat": 53.201702,
      "lon": 45.024362,
      "name": ""
    },
    {
      "lat": 53.202273,
      "lon": 45.024748,
      "name": ""
    },
    {
      "lat": 53.1439,
      "lon": 45.041244,
      "name": "ГБУЗ «Пензенская центральная районная больница»"
    },
    {
      "lat": 53.223213,
      "lon": 45.000769,
      "name": "Детская поликлиника №2."
    },
    {
      "lat": 53.224142,
      "lon": 44.992615,
      "name": "МИБС"
    },
    {
      "lat": 53.226396,
      "lon": 44.997106,
      "name": "ППО ЭВТ Поликлиника"
    },
    {
      "lat": 53.167329,
      "lon": 45.019039,
      "name": "Городская поликлиника № 9"
    },
    {
      "lat": 53.173955,
      "lon": 45.008591,
      "name": "Больница им. Н. Н. Бурденко"
    },
    {
      "lat": 53.177285,
      "lon": 45.007257,
      "name": "Поликлиника"
    },
    {
      "lat": 53.177527,
      "lon": 45.006165,
      "name": "Клинический центр специализированных видов медицинской помощи"
    },
    {
      "lat": 53.177412,
      "lon": 45.006122,
      "name": "Стационар, приёмное отделение"
    },
    {
      "lat": 53.177729,
      "lon": 45.006494,
      "name": "Пищеблок"
    },
    {
      "lat": 53.177985,
      "lon": 45.005502,
      "name": "Стационар"
    },
    {
      "lat": 53.177856,
      "lon": 45.006014,
      "name": "Администрация больницы"
    },
    {
      "lat": 53.177862,
      "lon": 45.004949,
      "name": "Дневной стационар"
    },
    {
      "lat": 53.183128,
      "lon": 44.99782,
      "name": "Областная больница им. Н.Н. Бурденко"
    },
    {
      "lat": 53.183366,
      "lon": 44.99688,
      "name": "Отделение урологии"
    },
    {
      "lat": 53.183041,
      "lon": 44.996128,
      "name": "Перинатальный центр"
    },
    {
      "lat": 53.182741,
      "lon": 44.996069,
      "name": "Отделение охраны репродуктивного здоровья"
    },
    {
      "lat": 53.182893,
      "lon": 44.996099,
      "name": "Женская консультация"
    },
    {
      "lat": 53.18279,
      "lon": 44.993923,
      "name": "Кардиологическое отделение"
    },
    {
      "lat": 53.18256,
      "lon": 44.9949,
      "name": "Гинекологическое отделение"
    },
    {
      "lat": 53.183136,
      "lon": 44.997435,
      "name": "Отделение стационара"
    },
    {
      "lat": 53.182412,
      "lon": 44.993687,
      "name": "Отделение пластической хирургии"
    },
    {
      "lat": 53.182726,
      "lon": 44.993914,
      "name": "Гастроэнтерологическое отделение"
    },
    {
      "lat": 53.182609,
      "lon": 44.994908,
      "name": "Травматологическое отделение"
    },
    {
      "lat": 53.18266,
      "lon": 44.993905,
      "name": "Нефрологическое отделение"
    },
    {
      "lat": 53.182574,
      "lon": 44.99438,
      "name": "Госпиталь для пациентов с COVID-19"
    },
    {
      "lat": 53.244875,
      "lon": 45.012008,
      "name": "Поликлиническое отделение детской поликлиники №2"
    },
    {
      "lat": 53.226132,
      "lon": 44.910485,
      "name": "Пензенский дом ветеранов"
    },
    {
      "lat": 53.186519,
      "lon": 45.006066,
      "name": ""
    },
    {
      "lat": 53.227267,
      "lon": 44.90425,
      "name": "Городская клиническая больница скорой медицинской помощи им. Г.А. Захарьина"
    },
    {
      "lat": 53.230043,
      "lon": 44.948223,
      "name": "Новая клиника"
    },
    {
      "lat": 53.226804,
      "lon": 44.996524,
      "name": "Городская больница №1"
    },
    {
      "lat": 53.165878,
      "lon": 44.999896,
      "name": "Городская больница №5"
    },
    {
      "lat": 53.172699,
      "lon": 44.998445,
      "name": "Областной противотуберкулезный диспансер"
    },
    {
      "lat": 53.179146,
      "lon": 45.003162,
      "name": "Больница им. Семашко"
    },
    {
      "lat": 53.227325,
      "lon": 45.054334,
      "name": "Медсанчасть №2"
    },
    {
      "lat": 53.248795,
      "lon": 45.014379,
      "name": "Поликлиника №7"
    },
    {
      "lat": 53.193975,
      "lon": 45.034726,
      "name": "Детская поликлиника №4"
    },
    {
      "lat": 53.178519,
      "lon": 45.001125,
      "name": "Медико-санитарная часть Управления МВД России по Пензенской области"
    },
    {
      "lat": 53.175107,
      "lon": 45.018041,
      "name": "Городская больница №3 Поликлиника N 1"
    },
    {
      "lat": 53.184827,
      "lon": 45.017239,
      "name": "Военный клинический госпиталь МО РФ"
    },
    {
      "lat": 53.19147,
      "lon": 45.011118,
      "name": "Городская больница № 3"
    },
    {
      "lat": 53.223645,
      "lon": 44.902895,
      "name": "Областной онкологический диспансер"
    },
    {
      "lat": 53.141365,
      "lon": 45.017066,
      "name": "ГБУЗ Районная больница"
    },
    {
      "lat": 53.217577,
      "lon": 44.946004,
      "name": ""
    },
    {
      "lat": 53.193767,
      "lon": 45.040866,
      "name": "Горбольница №2"
    },
    {
      "lat": 53.225547,
      "lon": 44.94339,
      "name": "Пензенский областной госпиталь для ветеранов войн"
    },
    {
      "lat": 53.226282,
      "lon": 44.941614,
      "name": "Cтационар Пензенского городского родильного дома"
    },
    {
      "lat": 53.226974,
      "lon": 44.939697,
      "name": "Городская детская поликлиника"
    },
    {
      "lat": 53.16442,
      "lon": 45.001781,
      "name": ""
    },
    {
      "lat": 53.141551,
      "lon": 45.035886,
      "name": "Пензенская районная больница Поликлиника 3"
    },
    {
      "lat": 53.208821,
      "lon": 45.011023,
      "name": "Поликлиника № 5"
    },
    {
      "lat": 53.19617,
      "lon": 45.001659,
      "name": ""
    }
  ],
  "clinics": [
    {
      "lat": 53.188484,
      "lon": 44.969033,
      "name": "Поликлиника №12"
    },
    {
      "lat": 53.182923,
      "lon": 45.015774,
      "name": "Бастом"
    },
    {
      "lat": 53.186171,
      "lon": 45.010299,
      "name": "Медгард"
    },
    {
      "lat": 53.176974,
      "lon": 45.004299,
      "name": "Клиника Стандарт"
    },
    {
      "lat": 53.213687,
      "lon": 44.925782,
      "name": "МедМикс"
    },
    {
      "lat": 53.181073,
      "lon": 45.014481,
      "name": "Городская поликлиника №11"
    },
    {
      "lat": 53.174965,
      "lon": 45.014321,
      "name": "УЗИ"
    },
    {
      "lat": 53.199236,
      "lon": 44.995043,
      "name": "Медикус"
    },
    {
      "lat": 53.191922,
      "lon": 45.020658,
      "name": "Медицина для Вас"
    },
    {
      "lat": 53.202515,
      "lon": 45.000341,
      "name": "Медиклиник"
    },
    {
      "lat": 53.228262,
      "lon": 44.933832,
      "name": "УЗИ"
    },
    {
      "lat": 53.22063,
      "lon": 44.914648,
      "name": "Диагностический центр \"Авгур\""
    },
    {
      "lat": 53.195619,
      "lon": 45.004068,
      "name": "КосмоМед"
    },
    {
      "lat": 53.185214,
      "lon": 45.054118,
      "name": "МедиКлиник"
    },
    {
      "lat": 53.171147,
      "lon": 45.009959,
      "name": "Helix"
    },
    {
      "lat": 53.173566,
      "lon": 45.011476,
      "name": "Персональное здоровье"
    },
    {
      "lat": 53.16635,
      "lon": 44.981949,
      "name": "Домашний доктор"
    },
    {
      "lat": 53.198979,
      "lon": 44.998366,
      "name": "Психотерапия"
    },
    {
      "lat": 53.218276,
      "lon": 44.978373,
      "name": "Протезно-ортопедический центр"
    },
    {
      "lat": 53.179036,
      "lon": 45.012333,
      "name": "Эстетика"
    },
    {
      "lat": 53.174392,
      "lon": 45.016167,
      "name": "Академия здоровья"
    },
    {
      "lat": 53.184587,
      "lon": 45.015935,
      "name": "Атлант"
    },
    {
      "lat": 53.198926,
      "lon": 44.990584,
      "name": "Талисман"
    },
    {
      "lat": 53.215471,
      "lon": 44.98568,
      "name": "Медицина для Вас"
    },
    {
      "lat": 53.19974,
      "lon": 44.997363,
      "name": "Медмикс"
    },
    {
      "lat": 53.180462,
      "lon": 45.015405,
      "name": "Поликлиника лечения позвоночника"
    },
    {
      "lat": 53.180195,
      "lon": 45.015299,
      "name": "Медцентр УЗИ"
    },
    {
      "lat": 53.22694,
      "lon": 44.926042,
      "name": "Гемотест"
    },
    {
      "lat": 53.186359,
      "lon": 45.058201,
      "name": "Поликлиника №8"
    },
    {
      "lat": 53.164575,
      "lon": 45.001891,
      "name": "Пензенский областной клинический центр специализированных видов медицинской помощи, кабинет подолога"
    },
    {
      "lat": 53.16444,
      "lon": 45.001643,
      "name": "Доверие"
    },
    {
      "lat": 53.207077,
      "lon": 45.009824,
      "name": "Омега"
    },
    {
      "lat": 53.201463,
      "lon": 45.02245,
      "name": "РЖД Медицина"
    },
    {
      "lat": 53.175865,
      "lon": 45.015224,
      "name": "Детская поликлиника"
    },
    {
      "lat": 53.229706,
      "lon": 44.904767,
      "name": "MEDI-клиник"
    },
    {
      "lat": 53.217679,
      "lon": 44.945954,
      "name": "ГБУЗ «Пензенский областной центр медицинской профилактики»"
    },
    {
      "lat": 53.17419,
      "lon": 45.007734,
      "name": "Клиника-Сити"
    },
    {
      "lat": 53.220814,
      "lon": 44.911158,
      "name": "Логопед"
    },
    {
      "lat": 53.143233,
      "lon": 45.023169,
      "name": "Медиклиник"
    },
    {
      "lat": 53.130845,
      "lon": 45.015581,
      "name": "Детская поликлиника № 7"
    },
    {
      "lat": 53.13193,
      "lon": 45.023569,
      "name": "Здоровье"
    },
    {
      "lat": 53.223306,
      "lon": 45.000889,
      "name": ""
    },
    {
      "lat": 53.201126,
      "lon": 44.979318,
      "name": ""
    },
    {
      "lat": 53.27064,
      "lon": 44.920217,
      "name": "Городская детская поликлиника"
    },
    {
      "lat": 53.18638,
      "lon": 45.058204,
      "name": "Поликлиника №8"
    },
    {
      "lat": 53.164953,
      "lon": 44.999548,
      "name": "Диализный центр NephroCare"
    },
    {
      "lat": 53.187938,
      "lon": 45.007244,
      "name": "Клиника Фомина"
    },
    {
      "lat": 53.165915,
      "lon": 45.000916,
      "name": "Поликлиника №8"
    },
    {
      "lat": 53.164519,
      "lon": 45.001743,
      "name": ""
    },
    {
      "lat": 53.224938,
      "lon": 44.923181,
      "name": "Здоровье"
    },
    {
      "lat": 53.131603,
      "lon": 45.045425,
      "name": "Детская поликлиника"
    }
  ],
  "pharmacies": [
    {
      "lat": 53.22951,
      "lon": 44.92755,
      "name": "Аптечный дом"
    },
    {
      "lat": 53.193571,
      "lon": 45.013335,
      "name": "СанЭпидСтанция"
    },
    {
      "lat": 53.221472,
      "lon": 44.928673,
      "name": "ФармТрейд"
    },
    {
      "lat": 53.211343,
      "lon": 44.988553,
      "name": "Аптечный пункт"
    },
    {
      "lat": 53.227954,
      "lon": 44.941045,
      "name": "Фармация"
    },
    {
      "lat": 53.191026,
      "lon": 45.02337,
      "name": "Аптека"
    },
    {
      "lat": 53.211239,
      "lon": 44.971354,
      "name": "Аптека"
    },
    {
      "lat": 53.222376,
      "lon": 44.986395,
      "name": "Капелька"
    },
    {
      "lat": 53.222299,
      "lon": 44.986696,
      "name": "Омега-Фарм"
    },
    {
      "lat": 53.222416,
      "lon": 44.919609,
      "name": ""
    },
    {
      "lat": 53.188062,
      "lon": 44.96918,
      "name": "Фармация"
    },
    {
      "lat": 53.188451,
      "lon": 44.970186,
      "name": "Вита Экспресс"
    },
    {
      "lat": 53.189767,
      "lon": 44.982,
      "name": "Вита Экспресс"
    },
    {
      "lat": 53.227886,
      "lon": 44.904067,
      "name": "Аптека"
    },
    {
      "lat": 53.229146,
      "lon": 44.904449,
      "name": "Аптека"
    },
    {
      "lat": 53.185993,
      "lon": 44.973766,
      "name": "Аптека 150"
    },
    {
      "lat": 53.224855,
      "lon": 44.921306,
      "name": "Импульс"
    },
    {
      "lat": 53.176965,
      "lon": 45.013276,
      "name": "Аптечный дом Имплозия"
    },
    {
      "lat": 53.173812,
      "lon": 45.011356,
      "name": ""
    },
    {
      "lat": 53.178749,
      "lon": 45.00337,
      "name": "Аптека"
    },
    {
      "lat": 53.199721,
      "lon": 45.010775,
      "name": "Первая помощь"
    },
    {
      "lat": 53.220322,
      "lon": 44.935731,
      "name": "Аптечный пункт"
    },
    {
      "lat": 53.136687,
      "lon": 45.022048,
      "name": ""
    },
    {
      "lat": 53.198508,
      "lon": 45.015187,
      "name": "Городская кредитно-сберегательная касса"
    },
    {
      "lat": 53.19317,
      "lon": 45.019312,
      "name": "Фарма-Люкс"
    },
    {
      "lat": 53.20053,
      "lon": 45.021907,
      "name": "Первая помощь"
    },
    {
      "lat": 53.200106,
      "lon": 45.021204,
      "name": "Вита Центральная"
    },
    {
      "lat": 53.199781,
      "lon": 45.022984,
      "name": "Фармация"
    },
    {
      "lat": 53.164745,
      "lon": 45.004531,
      "name": "Городские аптеки"
    },
    {
      "lat": 53.18569,
      "lon": 45.054192,
      "name": ""
    },
    {
      "lat": 53.231798,
      "lon": 44.93779,
      "name": "Апрель"
    },
    {
      "lat": 53.231489,
      "lon": 44.927595,
      "name": ""
    },
    {
      "lat": 53.196529,
      "lon": 45.007417,
      "name": "Аптечный дом"
    },
    {
      "lat": 53.216151,
      "lon": 44.981442,
      "name": "Вита Экспресс"
    },
    {
      "lat": 53.196971,
      "lon": 45.003627,
      "name": ""
    },
    {
      "lat": 53.182542,
      "lon": 45.015638,
      "name": "Аптека №2"
    },
    {
      "lat": 53.143497,
      "lon": 45.024628,
      "name": "Аптека Календула"
    },
    {
      "lat": 53.20389,
      "lon": 44.999251,
      "name": "Аптека"
    },
    {
      "lat": 53.186507,
      "lon": 45.016725,
      "name": "Для всей семьи"
    },
    {
      "lat": 53.192591,
      "lon": 45.016059,
      "name": "АптекиПлюс"
    },
    {
      "lat": 53.204758,
      "lon": 44.980294,
      "name": "Вита Экспресс"
    },
    {
      "lat": 53.183355,
      "lon": 44.994174,
      "name": "Фармация"
    },
    {
      "lat": 53.202756,
      "lon": 44.998072,
      "name": ""
    },
    {
      "lat": 53.199567,
      "lon": 44.980115,
      "name": ""
    },
    {
      "lat": 53.200218,
      "lon": 44.978971,
      "name": ""
    },
    {
      "lat": 53.205407,
      "lon": 44.979302,
      "name": "Helix"
    },
    {
      "lat": 53.234274,
      "lon": 44.934435,
      "name": ""
    },
    {
      "lat": 53.222929,
      "lon": 44.925552,
      "name": "Имплозия"
    },
    {
      "lat": 53.19642,
      "lon": 45.00997,
      "name": "Фармация"
    },
    {
      "lat": 53.150616,
      "lon": 44.967019,
      "name": "Аптечный пункт Волга"
    },
    {
      "lat": 53.210179,
      "lon": 44.981472,
      "name": "Фармация"
    },
    {
      "lat": 53.223112,
      "lon": 45.049778,
      "name": "Вита Экспресс"
    },
    {
      "lat": 53.215056,
      "lon": 45.054608,
      "name": "Вита Экспресс"
    },
    {
      "lat": 53.186071,
      "lon": 44.986585,
      "name": ""
    },
    {
      "lat": 53.22271,
      "lon": 44.929205,
      "name": ""
    },
    {
      "lat": 53.210605,
      "lon": 45.049388,
      "name": "Аптека"
    },
    {
      "lat": 53.222185,
      "lon": 44.924963,
      "name": "Социальная аптека"
    },
    {
      "lat": 53.209983,
      "lon": 44.975856,
      "name": "Апрель"
    },
    {
      "lat": 53.221063,
      "lon": 44.95121,
      "name": "Вагон здоровья (закр.)"
    },
    {
      "lat": 53.181582,
      "lon": 45.008908,
      "name": "Фармация"
    },
    {
      "lat": 53.131171,
      "lon": 45.021227,
      "name": "Аптека"
    },
    {
      "lat": 53.215501,
      "lon": 44.996761,
      "name": "Аптека №5"
    },
    {
      "lat": 53.220481,
      "lon": 44.918323,
      "name": "Моя аптека"
    },
    {
      "lat": 53.212873,
      "lon": 45.005594,
      "name": "Социальная аптека"
    },
    {
      "lat": 53.209533,
      "lon": 45.007217,
      "name": ""
    },
    {
      "lat": 53.193539,
      "lon": 45.003116,
      "name": "Фарм-Помощь"
    },
    {
      "lat": 53.208862,
      "lon": 45.014691,
      "name": ""
    },
    {
      "lat": 53.135404,
      "lon": 45.018431,
      "name": "Календула"
    },
    {
      "lat": 53.131301,
      "lon": 45.016351,
      "name": "Фармация №184"
    },
    {
      "lat": 53.178588,
      "lon": 45.013345,
      "name": "Вита-Пенза"
    },
    {
      "lat": 53.173859,
      "lon": 45.018419,
      "name": "Для всей семьи"
    },
    {
      "lat": 53.173379,
      "lon": 45.001958,
      "name": "Юнона Мед"
    },
    {
      "lat": 53.174522,
      "lon": 45.003418,
      "name": "Вива"
    },
    {
      "lat": 53.176877,
      "lon": 45.004588,
      "name": ""
    },
    {
      "lat": 53.215507,
      "lon": 45.054572,
      "name": "Вита-Пенза"
    },
    {
      "lat": 53.171048,
      "lon": 45.009872,
      "name": "58 Плюс"
    },
    {
      "lat": 53.180701,
      "lon": 45.04383,
      "name": "Аптечный пункт"
    },
    {
      "lat": 53.216929,
      "lon": 44.977516,
      "name": "Вита Экспресс"
    },
    {
      "lat": 53.166362,
      "lon": 44.981403,
      "name": ""
    },
    {
      "lat": 53.166084,
      "lon": 44.981056,
      "name": "Лавка здоровья"
    },
    {
      "lat": 53.184204,
      "lon": 45.063276,
      "name": ""
    },
    {
      "lat": 53.184633,
      "lon": 45.064279,
      "name": "Юнифарм"
    },
    {
      "lat": 53.184203,
      "lon": 45.062745,
      "name": "Фармация"
    },
    {
      "lat": 53.207321,
      "lon": 44.986456,
      "name": "Аптека"
    },
    {
      "lat": 53.205434,
      "lon": 44.99117,
      "name": "Аптека"
    },
    {
      "lat": 53.203463,
      "lon": 44.999175,
      "name": "Апрель"
    },
    {
      "lat": 53.203626,
      "lon": 44.988257,
      "name": "Аптека"
    },
    {
      "lat": 53.141885,
      "lon": 45.015206,
      "name": "Аптечный пункт №93"
    },
    {
      "lat": 53.166751,
      "lon": 45.004877,
      "name": "Первая помощь"
    },
    {
      "lat": 53.169158,
      "lon": 45.008979,
      "name": "Фарм-трейд"
    },
    {
      "lat": 53.169419,
      "lon": 45.009086,
      "name": "Фармация"
    },
    {
      "lat": 53.174386,
      "lon": 45.016204,
      "name": "Фарма-люкс"
    },
    {
      "lat": 53.169497,
      "lon": 45.002334,
      "name": "Аптека №17"
    },
    {
      "lat": 53.173162,
      "lon": 45.010387,
      "name": "Вита Экспресс"
    },
    {
      "lat": 53.140692,
      "lon": 45.037102,
      "name": "Фарм-трейд"
    },
    {
      "lat": 53.140517,
      "lon": 45.032492,
      "name": "Аптека низких цен"
    },
    {
      "lat": 53.141406,
      "lon": 45.036975,
      "name": "Фарммаркет"
    },
    {
      "lat": 53.216731,
      "lon": 44.978011,
      "name": ""
    },
    {
      "lat": 53.185557,
      "lon": 44.982361,
      "name": "Календула"
    },
    {
      "lat": 53.18551,
      "lon": 44.981963,
      "name": "Твоя аптека"
    },
    {
      "lat": 53.136339,
      "lon": 45.023261,
      "name": "Фармсклад-2"
    },
    {
      "lat": 53.170151,
      "lon": 45.008721,
      "name": "Фарм Трейд"
    },
    {
      "lat": 53.243398,
      "lon": 45.013693,
      "name": "Аптека №11"
    },
    {
      "lat": 53.24484,
      "lon": 45.012817,
      "name": "Фармация"
    },
    {
      "lat": 53.200936,
      "lon": 45.021432,
      "name": "Социальная аптека"
    },
    {
      "lat": 53.201875,
      "lon": 44.99631,
      "name": "Социальная аптека"
    },
    {
      "lat": 53.201402,
      "lon": 45.002184,
      "name": "Вита Экспресс"
    },
    {
      "lat": 53.200413,
      "lon": 44.992008,
      "name": "Лекарь-Аптекарь"
    },
    {
      "lat": 53.168628,
      "lon": 44.985378,
      "name": "Пульс"
    },
    {
      "lat": 53.166363,
      "lon": 44.980023,
      "name": "Аптечный дом"
    },
    {
      "lat": 53.165981,
      "lon": 44.979335,
      "name": "Вита Экспресс"
    },
    {
      "lat": 53.219916,
      "lon": 44.941766,
      "name": "Аптечный дом"
    },
    {
      "lat": 53.185495,
      "lon": 45.013842,
      "name": "Апрель"
    },
    {
      "lat": 53.223656,
      "lon": 44.983249,
      "name": ""
    },
    {
      "lat": 53.215619,
      "lon": 44.983004,
      "name": "Аптека"
    },
    {
      "lat": 53.209335,
      "lon": 45.00228,
      "name": "Фармсклад"
    },
    {
      "lat": 53.222166,
      "lon": 44.913358,
      "name": "Фармация № 87"
    },
    {
      "lat": 53.186552,
      "lon": 45.070586,
      "name": ""
    },
    {
      "lat": 53.133794,
      "lon": 44.9621,
      "name": "Мирта"
    },
    {
      "lat": 53.194654,
      "lon": 45.015821,
      "name": "Аптека №3"
    },
    {
      "lat": 53.223429,
      "lon": 44.91971,
      "name": "Вита Центральная"
    },
    {
      "lat": 53.223193,
      "lon": 44.919062,
      "name": ""
    },
    {
      "lat": 53.202454,
      "lon": 44.996541,
      "name": ""
    },
    {
      "lat": 53.201598,
      "lon": 44.998984,
      "name": "Аптека58"
    },
    {
      "lat": 53.187126,
      "lon": 44.965271,
      "name": "Вита"
    },
    {
      "lat": 53.216432,
      "lon": 44.97713,
      "name": ""
    },
    {
      "lat": 53.271716,
      "lon": 45.022799,
      "name": ""
    },
    {
      "lat": 53.203415,
      "lon": 45.01071,
      "name": "Вита Экспресс"
    },
    {
      "lat": 53.207172,
      "lon": 45.009224,
      "name": "Вита Экспресс"
    },
    {
      "lat": 53.140231,
      "lon": 45.037599,
      "name": "Вита Экспресс"
    },
    {
      "lat": 53.222147,
      "lon": 44.987863,
      "name": "Вита Экспресс"
    },
    {
      "lat": 53.132338,
      "lon": 45.023137,
      "name": "Вита Центральная"
    },
    {
      "lat": 53.219229,
      "lon": 44.941308,
      "name": "Вита Экспресс"
    },
    {
      "lat": 53.170899,
      "lon": 45.009108,
      "name": "Вита Экспресс"
    },
    {
      "lat": 53.229482,
      "lon": 44.917189,
      "name": "Вита Экспресс"
    },
    {
      "lat": 53.221645,
      "lon": 44.92691,
      "name": "Вита Экспресс"
    },
    {
      "lat": 53.202472,
      "lon": 44.996655,
      "name": "Вита Центральная"
    },
    {
      "lat": 53.214793,
      "lon": 45.054583,
      "name": "Вита Экспресс"
    },
    {
      "lat": 53.184876,
      "lon": 45.064024,
      "name": "Вита Экспресс"
    },
    {
      "lat": 53.221657,
      "lon": 44.923326,
      "name": "Вита Экспресс"
    },
    {
      "lat": 53.215335,
      "lon": 44.986141,
      "name": "Вита Экспресс"
    },
    {
      "lat": 53.228111,
      "lon": 44.940125,
      "name": "Вита Экспресс"
    },
    {
      "lat": 53.215379,
      "lon": 44.97017,
      "name": "Вита Экспресс"
    },
    {
      "lat": 53.140731,
      "lon": 45.023142,
      "name": "Вита Экспресс"
    },
    {
      "lat": 53.199042,
      "lon": 45.017904,
      "name": "Вита Экспресс"
    },
    {
      "lat": 53.222237,
      "lon": 44.91608,
      "name": "Вита Экспресс"
    },
    {
      "lat": 53.132029,
      "lon": 45.021067,
      "name": "Вита Экспресс"
    },
    {
      "lat": 53.1956,
      "lon": 45.03878,
      "name": "Вита Экспресс"
    },
    {
      "lat": 53.207431,
      "lon": 45.004889,
      "name": "Вита Экспресс"
    },
    {
      "lat": 53.228273,
      "lon": 44.933757,
      "name": "Вита Центральная"
    },
    {
      "lat": 53.199805,
      "lon": 45.020876,
      "name": "Вита Центральная"
    },
    {
      "lat": 53.184023,
      "lon": 45.054564,
      "name": ""
    },
    {
      "lat": 53.17643,
      "lon": 45.036726,
      "name": ""
    },
    {
      "lat": 53.165678,
      "lon": 44.979951,
      "name": "Вита Экспресс"
    },
    {
      "lat": 53.211808,
      "lon": 44.970485,
      "name": "Надежда-Фарм"
    },
    {
      "lat": 53.217236,
      "lon": 44.980812,
      "name": "Надежда-Фарм"
    },
    {
      "lat": 53.210109,
      "lon": 44.989425,
      "name": "Надежда-Фарм"
    },
    {
      "lat": 53.199573,
      "lon": 45.021628,
      "name": "Вита Экспресс"
    },
    {
      "lat": 53.229699,
      "lon": 44.937542,
      "name": "Еаптека"
    },
    {
      "lat": 53.209565,
      "lon": 44.977692,
      "name": "Вита Экспресс"
    },
    {
      "lat": 53.227864,
      "lon": 44.941316,
      "name": "Вита Экспресс"
    },
    {
      "lat": 53.181305,
      "lon": 45.056254,
      "name": "Вита Экспресс"
    },
    {
      "lat": 53.211038,
      "lon": 44.98024,
      "name": "Вита Экспресс"
    },
    {
      "lat": 53.244023,
      "lon": 45.01372,
      "name": "Фармация"
    },
    {
      "lat": 53.196736,
      "lon": 45.005415,
      "name": "Еаптека"
    },
    {
      "lat": 53.209674,
      "lon": 44.953452,
      "name": "Апрель"
    },
    {
      "lat": 53.138548,
      "lon": 45.040365,
      "name": "Вита Экспресс"
    },
    {
      "lat": 53.216722,
      "lon": 44.948923,
      "name": "Алоэ"
    },
    {
      "lat": 53.168891,
      "lon": 44.985883,
      "name": "Вита Экспресс"
    },
    {
      "lat": 53.200418,
      "lon": 45.009959,
      "name": "Еаптека"
    },
    {
      "lat": 53.197021,
      "lon": 45.019882,
      "name": "Вита Экспресс"
    },
    {
      "lat": 53.188188,
      "lon": 45.014687,
      "name": "Апрель"
    },
    {
      "lat": 53.128125,
      "lon": 45.032482,
      "name": "Вита Экспресс"
    },
    {
      "lat": 53.222989,
      "lon": 45.045683,
      "name": "Вита Экспресс"
    },
    {
      "lat": 53.154365,
      "lon": 44.959831,
      "name": "Вита Экспресс"
    },
    {
      "lat": 53.187831,
      "lon": 45.014974,
      "name": "Аптека №1"
    },
    {
      "lat": 53.224369,
      "lon": 44.920961,
      "name": "Вита Экспресс"
    },
    {
      "lat": 53.247847,
      "lon": 45.009969,
      "name": "Вита Экспресс"
    },
    {
      "lat": 53.182106,
      "lon": 45.054789,
      "name": "Вита Экспресс"
    },
    {
      "lat": 53.155695,
      "lon": 44.960808,
      "name": "Вита Экспресс"
    },
    {
      "lat": 53.140532,
      "lon": 45.038411,
      "name": "Вита Экспресс"
    },
    {
      "lat": 53.187285,
      "lon": 44.971088,
      "name": "Вита Экспресс"
    },
    {
      "lat": 53.160866,
      "lon": 45.023998,
      "name": "Вита Экспресс"
    },
    {
      "lat": 53.185169,
      "lon": 44.981745,
      "name": "Вита Экспресс"
    },
    {
      "lat": 53.186624,
      "lon": 45.045664,
      "name": "Вита Экспресс"
    },
    {
      "lat": 53.224586,
      "lon": 44.922738,
      "name": "Апрель"
    },
    {
      "lat": 53.186227,
      "lon": 44.963298,
      "name": "Вита Экспресс"
    },
    {
      "lat": 53.220542,
      "lon": 44.907261,
      "name": "Вита Экспресс"
    },
    {
      "lat": 53.154558,
      "lon": 44.95899,
      "name": "Аптека Плюс"
    },
    {
      "lat": 53.24411,
      "lon": 45.015553,
      "name": "Сеть Аптек Вива"
    },
    {
      "lat": 53.247571,
      "lon": 45.006105,
      "name": "Славия Плюс"
    },
    {
      "lat": 53.248105,
      "lon": 45.009972,
      "name": "Магнит Аптека"
    },
    {
      "lat": 53.131715,
      "lon": 45.020453,
      "name": "Городская аптека №18"
    },
    {
      "lat": 53.22328,
      "lon": 44.913432,
      "name": "Аптека №4"
    },
    {
      "lat": 53.224851,
      "lon": 44.923703,
      "name": "Аптека"
    },
    {
      "lat": 53.161718,
      "lon": 44.979415,
      "name": ""
    },
    {
      "lat": 53.228906,
      "lon": 44.907571,
      "name": "Аптека"
    },
    {
      "lat": 53.228716,
      "lon": 45.025806,
      "name": ""
    },
    {
      "lat": 53.228774,
      "lon": 44.932321,
      "name": "Аптека для всей семьи"
    },
    {
      "lat": 53.203511,
      "lon": 45.010792,
      "name": "Вита"
    },
    {
      "lat": 53.210327,
      "lon": 44.971028,
      "name": ""
    },
    {
      "lat": 53.209697,
      "lon": 44.990238,
      "name": ""
    }
  ],
  "cafes": [
    {
      "lat": 53.18709,
      "lon": 45.01433,
      "name": "ProТесто"
    },
    {
      "lat": 53.192092,
      "lon": 45.015865,
      "name": "Корица"
    },
    {
      "lat": 53.23147,
      "lon": 44.915591,
      "name": "Столовая"
    },
    {
      "lat": 53.198876,
      "lon": 45.01612,
      "name": "Суши-бар"
    },
    {
      "lat": 53.198144,
      "lon": 45.01691,
      "name": "Myaso"
    },
    {
      "lat": 53.185434,
      "lon": 45.000513,
      "name": "Эстрада"
    },
    {
      "lat": 53.223112,
      "lon": 44.976486,
      "name": "Столовая Химмаш"
    },
    {
      "lat": 53.222751,
      "lon": 44.988443,
      "name": "Лебедь"
    },
    {
      "lat": 53.191912,
      "lon": 45.0153,
      "name": "Кафе"
    },
    {
      "lat": 53.18556,
      "lon": 44.998787,
      "name": ""
    },
    {
      "lat": 53.194921,
      "lon": 45.00929,
      "name": "Манга"
    },
    {
      "lat": 53.202682,
      "lon": 44.998302,
      "name": "Шоколад.ru"
    },
    {
      "lat": 53.194915,
      "lon": 45.009591,
      "name": "Fellini"
    },
    {
      "lat": 53.194754,
      "lon": 45.00929,
      "name": "Фараон Hall"
    },
    {
      "lat": 53.202045,
      "lon": 45.01211,
      "name": "Бизон"
    },
    {
      "lat": 53.198844,
      "lon": 45.020224,
      "name": "Удача"
    },
    {
      "lat": 53.19927,
      "lon": 45.020088,
      "name": "Чайка"
    },
    {
      "lat": 53.199781,
      "lon": 45.018691,
      "name": "London Street"
    },
    {
      "lat": 53.194403,
      "lon": 45.021101,
      "name": "Coffee Bean"
    },
    {
      "lat": 53.190618,
      "lon": 45.018008,
      "name": "Хинкальная"
    },
    {
      "lat": 53.189723,
      "lon": 45.015109,
      "name": "Кофейня"
    },
    {
      "lat": 53.163846,
      "lon": 45.004276,
      "name": "Избушка"
    },
    {
      "lat": 53.186086,
      "lon": 45.055284,
      "name": ""
    },
    {
      "lat": 53.189791,
      "lon": 45.016024,
      "name": "Чашка"
    },
    {
      "lat": 53.189858,
      "lon": 45.01586,
      "name": "Cinema"
    },
    {
      "lat": 53.193279,
      "lon": 45.016291,
      "name": "Самобранка"
    },
    {
      "lat": 53.193432,
      "lon": 45.016339,
      "name": "Два Хурма"
    },
    {
      "lat": 53.192869,
      "lon": 45.01615,
      "name": "Месье Жан-Поль"
    },
    {
      "lat": 53.199516,
      "lon": 45.01866,
      "name": "Сакура"
    },
    {
      "lat": 53.174547,
      "lon": 45.014195,
      "name": "Зефир"
    },
    {
      "lat": 53.201123,
      "lon": 45.016059,
      "name": "Друзья"
    },
    {
      "lat": 53.230407,
      "lon": 44.950389,
      "name": "Тяжпромпитание"
    },
    {
      "lat": 53.18331,
      "lon": 44.994062,
      "name": "Шоколад.ru"
    },
    {
      "lat": 53.180466,
      "lon": 45.005645,
      "name": "Чайка"
    },
    {
      "lat": 53.194041,
      "lon": 45.013644,
      "name": ""
    },
    {
      "lat": 53.194182,
      "lon": 45.013181,
      "name": ""
    },
    {
      "lat": 53.196434,
      "lon": 45.008602,
      "name": "Мандарин"
    },
    {
      "lat": 53.210113,
      "lon": 44.981613,
      "name": "Тандем"
    },
    {
      "lat": 53.219311,
      "lon": 45.018409,
      "name": "Кафе"
    },
    {
      "lat": 53.212037,
      "lon": 45.00921,
      "name": "Экспресс"
    },
    {
      "lat": 53.234475,
      "lon": 44.942272,
      "name": "Кафе"
    },
    {
      "lat": 53.217967,
      "lon": 44.929816,
      "name": "За углом"
    },
    {
      "lat": 53.219932,
      "lon": 44.951247,
      "name": "БургерХаус (2 эт)"
    },
    {
      "lat": 53.182603,
      "lon": 45.008968,
      "name": "Тарелка"
    },
    {
      "lat": 53.215405,
      "lon": 44.995866,
      "name": "Столовая Удача"
    },
    {
      "lat": 53.234946,
      "lon": 45.006491,
      "name": "Уют"
    },
    {
      "lat": 53.135045,
      "lon": 44.999041,
      "name": ""
    },
    {
      "lat": 53.19348,
      "lon": 44.990274,
      "name": "Таксопарк"
    },
    {
      "lat": 53.213265,
      "lon": 45.001225,
      "name": ""
    },
    {
      "lat": 53.168465,
      "lon": 44.968241,
      "name": ""
    },
    {
      "lat": 53.228736,
      "lon": 45.024856,
      "name": "Бережок"
    },
    {
      "lat": 53.193575,
      "lon": 45.002236,
      "name": "Банкетный зал"
    },
    {
      "lat": 53.180004,
      "lon": 45.003808,
      "name": "Bonapit"
    },
    {
      "lat": 53.177427,
      "lon": 45.003856,
      "name": "Отдых"
    },
    {
      "lat": 53.211337,
      "lon": 45.017258,
      "name": "Экспресс"
    },
    {
      "lat": 53.206057,
      "lon": 45.010754,
      "name": "Столовая Космея"
    },
    {
      "lat": 53.234223,
      "lon": 44.934391,
      "name": "Боцман"
    },
    {
      "lat": 53.201637,
      "lon": 45.005277,
      "name": "Шашлычная"
    },
    {
      "lat": 53.185361,
      "lon": 45.064247,
      "name": "Кафе"
    },
    {
      "lat": 53.204402,
      "lon": 44.983958,
      "name": "Кулинария"
    },
    {
      "lat": 53.183906,
      "lon": 45.030688,
      "name": "Мимино"
    },
    {
      "lat": 53.18095,
      "lon": 45.031191,
      "name": "Столовая бригадного дома Пенза III"
    },
    {
      "lat": 53.173454,
      "lon": 45.024797,
      "name": "Столовая"
    },
    {
      "lat": 53.254185,
      "lon": 44.911304,
      "name": "Заря"
    },
    {
      "lat": 53.204027,
      "lon": 45.013066,
      "name": "Карамель"
    },
    {
      "lat": 53.182847,
      "lon": 45.006374,
      "name": "Квартира №1"
    },
    {
      "lat": 53.181894,
      "lon": 45.005992,
      "name": "Универ 58"
    },
    {
      "lat": 53.167493,
      "lon": 45.004607,
      "name": "Нептун"
    },
    {
      "lat": 53.174453,
      "lon": 45.015812,
      "name": "Виктория"
    },
    {
      "lat": 53.140468,
      "lon": 45.037546,
      "name": "Венеция"
    },
    {
      "lat": 53.140674,
      "lon": 45.037017,
      "name": "Шоколад.ru"
    },
    {
      "lat": 53.139106,
      "lon": 45.049579,
      "name": "Coffee Like"
    },
    {
      "lat": 53.203439,
      "lon": 44.989289,
      "name": "Долина вкуса"
    },
    {
      "lat": 53.215454,
      "lon": 45.054891,
      "name": "Шаурма №1"
    },
    {
      "lat": 53.139931,
      "lon": 45.025097,
      "name": "Жемужина"
    },
    {
      "lat": 53.14208,
      "lon": 45.035986,
      "name": "Фиеста"
    },
    {
      "lat": 53.164116,
      "lon": 45.005094,
      "name": "Шоколад"
    },
    {
      "lat": 53.121417,
      "lon": 45.014348,
      "name": "Рататуй"
    },
    {
      "lat": 53.19792,
      "lon": 45.010459,
      "name": "Дайкон"
    },
    {
      "lat": 53.199115,
      "lon": 45.017335,
      "name": "Шоколад.ру"
    },
    {
      "lat": 53.200651,
      "lon": 45.012406,
      "name": "Карамель"
    },
    {
      "lat": 53.192985,
      "lon": 45.016649,
      "name": "Хлеб-Соль"
    },
    {
      "lat": 53.192932,
      "lon": 45.016609,
      "name": "Контакт-бар"
    },
    {
      "lat": 53.192482,
      "lon": 45.017024,
      "name": "Jastfeel"
    },
    {
      "lat": 53.193378,
      "lon": 45.013604,
      "name": "Шашлычная"
    },
    {
      "lat": 53.216933,
      "lon": 45.016109,
      "name": "У Николаеча"
    },
    {
      "lat": 53.201982,
      "lon": 45.013984,
      "name": "Эльмира"
    },
    {
      "lat": 53.202096,
      "lon": 45.01391,
      "name": "Экспресс"
    },
    {
      "lat": 53.192784,
      "lon": 45.018551,
      "name": "Столовая"
    },
    {
      "lat": 53.19592,
      "lon": 45.01183,
      "name": "BBQ"
    },
    {
      "lat": 53.231242,
      "lon": 44.935018,
      "name": "Белый кролик"
    },
    {
      "lat": 53.128116,
      "lon": 45.025059,
      "name": "Папа Карло (3 эт.)"
    },
    {
      "lat": 53.13969,
      "lon": 45.030977,
      "name": "Шаурма"
    },
    {
      "lat": 53.196589,
      "lon": 45.025014,
      "name": "у Ашота"
    },
    {
      "lat": 53.167061,
      "lon": 44.982716,
      "name": "Донна"
    },
    {
      "lat": 53.165571,
      "lon": 44.979838,
      "name": "Кристалл"
    },
    {
      "lat": 53.168082,
      "lon": 44.978913,
      "name": "2 шага"
    },
    {
      "lat": 53.227201,
      "lon": 45.023494,
      "name": "Столовая"
    },
    {
      "lat": 53.162791,
      "lon": 44.984637,
      "name": "Шоколад.ру"
    },
    {
      "lat": 53.222248,
      "lon": 44.915913,
      "name": "Столовая"
    },
    {
      "lat": 53.186542,
      "lon": 45.071496,
      "name": "Карамель"
    },
    {
      "lat": 53.196869,
      "lon": 45.007459,
      "name": "У Палыча"
    },
    {
      "lat": 53.188543,
      "lon": 45.015375,
      "name": "ЛуЛу"
    },
    {
      "lat": 53.185347,
      "lon": 45.011695,
      "name": "Шишки & Оешки"
    },
    {
      "lat": 53.223425,
      "lon": 44.990199,
      "name": "Куяр"
    },
    {
      "lat": 53.222097,
      "lon": 44.987709,
      "name": "Ника"
    },
    {
      "lat": 53.184833,
      "lon": 45.03136,
      "name": "Локомотив"
    },
    {
      "lat": 53.215387,
      "lon": 44.997563,
      "name": "Пельменная"
    },
    {
      "lat": 53.223503,
      "lon": 45.005612,
      "name": "Буфет"
    },
    {
      "lat": 53.222122,
      "lon": 44.999735,
      "name": ""
    },
    {
      "lat": 53.221592,
      "lon": 44.904435,
      "name": ""
    },
    {
      "lat": 53.198898,
      "lon": 45.000302,
      "name": "Столовая"
    },
    {
      "lat": 53.208271,
      "lon": 44.99539,
      "name": "Сокол"
    },
    {
      "lat": 53.193767,
      "lon": 45.011934,
      "name": "Городская столовая"
    },
    {
      "lat": 53.195413,
      "lon": 45.00452,
      "name": "Столовая"
    },
    {
      "lat": 53.136061,
      "lon": 45.022839,
      "name": "Домашний очаг"
    },
    {
      "lat": 53.173884,
      "lon": 45.005461,
      "name": "Горячо"
    },
    {
      "lat": 53.196254,
      "lon": 45.00063,
      "name": "Столовая58"
    },
    {
      "lat": 53.189708,
      "lon": 45.013068,
      "name": "Столовая58"
    },
    {
      "lat": 53.221414,
      "lon": 44.934225,
      "name": "Марселье"
    },
    {
      "lat": 53.220548,
      "lon": 44.95175,
      "name": "Кофе муз"
    },
    {
      "lat": 53.195981,
      "lon": 45.017116,
      "name": "Coffee Moose"
    },
    {
      "lat": 53.204099,
      "lon": 45.013924,
      "name": "Кафе 24"
    },
    {
      "lat": 53.250241,
      "lon": 45.013128,
      "name": "Револьвер"
    },
    {
      "lat": 53.250302,
      "lon": 45.009953,
      "name": "Золотой петушок"
    },
    {
      "lat": 53.180078,
      "lon": 44.992487,
      "name": "Coffee Like"
    },
    {
      "lat": 53.219472,
      "lon": 44.90464,
      "name": "Столовая"
    },
    {
      "lat": 53.21431,
      "lon": 45.001601,
      "name": "Поварёшка"
    },
    {
      "lat": 53.226078,
      "lon": 44.935579,
      "name": "Фарфор"
    },
    {
      "lat": 53.209716,
      "lon": 44.976785,
      "name": "Кебаб чайхана"
    },
    {
      "lat": 53.200269,
      "lon": 45.018821,
      "name": "Универ 58"
    },
    {
      "lat": 53.197033,
      "lon": 45.01833,
      "name": "БлинБери"
    },
    {
      "lat": 53.165098,
      "lon": 45.027103,
      "name": ""
    },
    {
      "lat": 53.183185,
      "lon": 45.004075,
      "name": "Ешка"
    },
    {
      "lat": 53.193739,
      "lon": 45.016409,
      "name": "Шашлычная Фамильная"
    },
    {
      "lat": 53.183407,
      "lon": 44.991985,
      "name": "Чайхана Узбечка"
    },
    {
      "lat": 53.200186,
      "lon": 45.015738,
      "name": "Русские перци"
    },
    {
      "lat": 53.243697,
      "lon": 45.013596,
      "name": "Viza"
    },
    {
      "lat": 53.224612,
      "lon": 44.998872,
      "name": "Фонарь"
    },
    {
      "lat": 53.193163,
      "lon": 45.013513,
      "name": "Wok Street"
    },
    {
      "lat": 53.186244,
      "lon": 44.96294,
      "name": "Baggins Coffee"
    },
    {
      "lat": 53.142944,
      "lon": 45.043799,
      "name": ""
    },
    {
      "lat": 53.139012,
      "lon": 45.049448,
      "name": "Barista"
    },
    {
      "lat": 53.187311,
      "lon": 45.014415,
      "name": "Фьорд"
    },
    {
      "lat": 53.187405,
      "lon": 45.014454,
      "name": "Coffee Wood"
    },
    {
      "lat": 53.187493,
      "lon": 45.014469,
      "name": "Coffee Like"
    },
    {
      "lat": 53.188643,
      "lon": 45.014826,
      "name": "Студия вкуса Ю"
    },
    {
      "lat": 53.188916,
      "lon": 45.014923,
      "name": "Мастерская кофе и чая"
    },
    {
      "lat": 53.189908,
      "lon": 45.014889,
      "name": "Кофейня"
    },
    {
      "lat": 53.193079,
      "lon": 45.016226,
      "name": "Cultura del Caffe"
    },
    {
      "lat": 53.188402,
      "lon": 45.01515,
      "name": "Рататуй"
    },
    {
      "lat": 53.185951,
      "lon": 45.010293,
      "name": "Берёзка"
    },
    {
      "lat": 53.219031,
      "lon": 44.993899,
      "name": "Остров"
    },
    {
      "lat": 53.198906,
      "lon": 45.019321,
      "name": "Я новая столовая"
    },
    {
      "lat": 53.184002,
      "lon": 45.002245,
      "name": "Времена года"
    },
    {
      "lat": 53.182791,
      "lon": 45.013351,
      "name": "Парус"
    },
    {
      "lat": 53.182597,
      "lon": 45.013517,
      "name": "Staff"
    },
    {
      "lat": 53.185187,
      "lon": 45.013671,
      "name": "Грот"
    },
    {
      "lat": 53.220299,
      "lon": 44.951304,
      "name": "Tea Funny"
    },
    {
      "lat": 53.222115,
      "lon": 44.909403,
      "name": "Coffee Like"
    },
    {
      "lat": 53.222684,
      "lon": 44.909488,
      "name": "Full house"
    },
    {
      "lat": 53.193097,
      "lon": 45.019425,
      "name": "Coffee stories"
    },
    {
      "lat": 53.194378,
      "lon": 45.015747,
      "name": "Gussi Coffee"
    },
    {
      "lat": 53.194698,
      "lon": 45.015611,
      "name": "Вокруг Подруг"
    },
    {
      "lat": 53.194455,
      "lon": 45.015749,
      "name": "Gussi Coffee"
    },
    {
      "lat": 53.176485,
      "lon": 45.004829,
      "name": "Шишки&Орешки"
    },
    {
      "lat": 53.139679,
      "lon": 45.030811,
      "name": "Восточная Кухня"
    },
    {
      "lat": 53.229246,
      "lon": 44.915427,
      "name": "Три тополя"
    },
    {
      "lat": 53.228986,
      "lon": 44.92704,
      "name": "Прохлада"
    },
    {
      "lat": 53.198322,
      "lon": 45.01503,
      "name": ""
    },
    {
      "lat": 53.225775,
      "lon": 44.99751,
      "name": "Столовая"
    },
    {
      "lat": 53.211172,
      "lon": 44.988555,
      "name": "Каприз"
    },
    {
      "lat": 53.17591,
      "lon": 45.036825,
      "name": "Звёздный"
    },
    {
      "lat": 53.224924,
      "lon": 44.991187,
      "name": "Столовая"
    },
    {
      "lat": 53.191962,
      "lon": 45.023592,
      "name": "У моста"
    },
    {
      "lat": 53.200524,
      "lon": 45.013249,
      "name": "Талас"
    },
    {
      "lat": 53.125427,
      "lon": 45.024403,
      "name": "Меридиан"
    },
    {
      "lat": 53.12935,
      "lon": 45.021247,
      "name": "Лермонтовъ"
    },
    {
      "lat": 53.192442,
      "lon": 45.015841,
      "name": "На Рождественской"
    },
    {
      "lat": 53.21006,
      "lon": 44.97656,
      "name": "Экспресс"
    },
    {
      "lat": 53.224836,
      "lon": 44.95662,
      "name": "Эльф"
    },
    {
      "lat": 53.222675,
      "lon": 44.933695,
      "name": ""
    },
    {
      "lat": 53.236078,
      "lon": 44.933343,
      "name": "Виктория"
    },
    {
      "lat": 53.217143,
      "lon": 44.994031,
      "name": "Продукты"
    },
    {
      "lat": 53.164649,
      "lon": 45.003753,
      "name": "Шаурма"
    },
    {
      "lat": 53.183364,
      "lon": 44.999471,
      "name": ""
    },
    {
      "lat": 53.242453,
      "lon": 44.94907,
      "name": "София"
    },
    {
      "lat": 53.204882,
      "lon": 45.002033,
      "name": "Очаг"
    },
    {
      "lat": 53.227606,
      "lon": 45.023505,
      "name": "У Татьяны"
    },
    {
      "lat": 53.138019,
      "lon": 45.001426,
      "name": "Столовая"
    },
    {
      "lat": 53.191431,
      "lon": 44.99944,
      "name": "Грильяж | Шоколад.ру"
    },
    {
      "lat": 53.167553,
      "lon": 45.020705,
      "name": "Корчма \"Хуторок\""
    },
    {
      "lat": 53.206197,
      "lon": 45.010857,
      "name": "Овертайм"
    },
    {
      "lat": 53.228376,
      "lon": 45.014488,
      "name": "Ночной город"
    },
    {
      "lat": 53.214012,
      "lon": 45.043734,
      "name": ""
    },
    {
      "lat": 53.223339,
      "lon": 44.960167,
      "name": ""
    },
    {
      "lat": 53.195332,
      "lon": 44.999466,
      "name": "Пилот"
    },
    {
      "lat": 53.18299,
      "lon": 44.989804,
      "name": "Лесное"
    },
    {
      "lat": 53.215542,
      "lon": 44.998524,
      "name": "Гриль Хаус"
    },
    {
      "lat": 53.19943,
      "lon": 44.998394,
      "name": "Облака"
    },
    {
      "lat": 53.202744,
      "lon": 45.01421,
      "name": "Согдиана"
    },
    {
      "lat": 53.19966,
      "lon": 45.026648,
      "name": "Lamar"
    },
    {
      "lat": 53.144651,
      "lon": 45.046633,
      "name": ""
    }
  ],
  "restaurants": [
    {
      "lat": 53.189213,
      "lon": 45.01503,
      "name": "Пиросмани"
    },
    {
      "lat": 53.189654,
      "lon": 45.013466,
      "name": "B.e.n.t.l.e.y"
    },
    {
      "lat": 53.191925,
      "lon": 45.015761,
      "name": "Нэцкэ"
    },
    {
      "lat": 53.203407,
      "lon": 45.010885,
      "name": "Гвоздика"
    },
    {
      "lat": 53.191919,
      "lon": 45.025318,
      "name": "Берег"
    },
    {
      "lat": 53.158515,
      "lon": 44.991635,
      "name": "Славянский"
    },
    {
      "lat": 53.191704,
      "lon": 45.019587,
      "name": "Давыдов"
    },
    {
      "lat": 53.201679,
      "lon": 45.015743,
      "name": ""
    },
    {
      "lat": 53.220666,
      "lon": 44.990918,
      "name": ""
    },
    {
      "lat": 53.19082,
      "lon": 45.018066,
      "name": "Ереван"
    },
    {
      "lat": 53.19645,
      "lon": 45.00795,
      "name": "Винный клуб Виновник"
    },
    {
      "lat": 53.194644,
      "lon": 45.022981,
      "name": "Ван Мюллер"
    },
    {
      "lat": 53.189483,
      "lon": 45.015977,
      "name": "IL Патио"
    },
    {
      "lat": 53.181868,
      "lon": 45.006089,
      "name": "Чайхана"
    },
    {
      "lat": 53.198196,
      "lon": 44.994396,
      "name": "Европейский"
    },
    {
      "lat": 53.190571,
      "lon": 45.015052,
      "name": "Godzilla"
    },
    {
      "lat": 53.214421,
      "lon": 45.008832,
      "name": "Короли"
    },
    {
      "lat": 53.197416,
      "lon": 45.000023,
      "name": "Бекон"
    },
    {
      "lat": 53.189916,
      "lon": 45.015707,
      "name": "Хачо и Пури"
    },
    {
      "lat": 53.185558,
      "lon": 45.009173,
      "name": "Шахерезада Степановна"
    },
    {
      "lat": 53.211225,
      "lon": 44.980705,
      "name": "Мюнхен"
    },
    {
      "lat": 53.221568,
      "lon": 44.990282,
      "name": "Леон"
    },
    {
      "lat": 53.18923,
      "lon": 45.015014,
      "name": "Таки Да"
    },
    {
      "lat": 53.193681,
      "lon": 45.016804,
      "name": "Сироп"
    },
    {
      "lat": 53.19772,
      "lon": 45.018398,
      "name": "Big Pig"
    },
    {
      "lat": 53.154641,
      "lon": 44.95864,
      "name": "Печка"
    },
    {
      "lat": 53.185506,
      "lon": 45.007207,
      "name": ""
    },
    {
      "lat": 53.179612,
      "lon": 45.009278,
      "name": "Дом Книголюбов"
    },
    {
      "lat": 53.220196,
      "lon": 44.95139,
      "name": "Перчини"
    },
    {
      "lat": 53.225095,
      "lon": 44.923819,
      "name": "Бар Алмаз"
    },
    {
      "lat": 53.212592,
      "lon": 44.985828,
      "name": "Банкетный зал «Миндаль»"
    },
    {
      "lat": 53.194507,
      "lon": 45.023344,
      "name": "Пенза"
    },
    {
      "lat": 53.191688,
      "lon": 45.019127,
      "name": "Прага"
    },
    {
      "lat": 53.190807,
      "lon": 45.017543,
      "name": "Купеческий"
    },
    {
      "lat": 53.186839,
      "lon": 45.022764,
      "name": "Бочка"
    },
    {
      "lat": 53.224054,
      "lon": 44.990488,
      "name": "Пандора"
    },
    {
      "lat": 53.184752,
      "lon": 45.014108,
      "name": "Я грузин"
    },
    {
      "lat": 53.187283,
      "lon": 44.992139,
      "name": "Самоварник"
    },
    {
      "lat": 53.192359,
      "lon": 45.016975,
      "name": "Градусник"
    },
    {
      "lat": 53.13973,
      "lon": 45.04882,
      "name": "Хачапури Марико"
    }
  ],
  "banks": [
    {
      "lat": 53.216989,
      "lon": 44.979447,
      "name": "Сбербанк"
    },
    {
      "lat": 53.191218,
      "lon": 45.015246,
      "name": "ВТБ"
    },
    {
      "lat": 53.193912,
      "lon": 45.013627,
      "name": "Совкомбанк"
    },
    {
      "lat": 53.213418,
      "lon": 44.994128,
      "name": "Почта Банк"
    },
    {
      "lat": 53.177315,
      "lon": 45.013407,
      "name": "Деньги напрокат"
    },
    {
      "lat": 53.189784,
      "lon": 44.982573,
      "name": "Сбербанк"
    },
    {
      "lat": 53.185757,
      "lon": 45.01645,
      "name": "Русский Стандарт"
    },
    {
      "lat": 53.199133,
      "lon": 45.020052,
      "name": "Тарханы"
    },
    {
      "lat": 53.189762,
      "lon": 45.017031,
      "name": "Сбербанк"
    },
    {
      "lat": 53.193938,
      "lon": 45.01907,
      "name": "Центральный банк РФ Пензенской обл."
    },
    {
      "lat": 53.202507,
      "lon": 44.996152,
      "name": "ВТБ"
    },
    {
      "lat": 53.221899,
      "lon": 44.926045,
      "name": "Сбербанк"
    },
    {
      "lat": 53.172557,
      "lon": 45.010718,
      "name": "Сбербанк"
    },
    {
      "lat": 53.196807,
      "lon": 45.004833,
      "name": "Сбербанк"
    },
    {
      "lat": 53.166084,
      "lon": 44.979499,
      "name": "Сбербанк"
    },
    {
      "lat": 53.222127,
      "lon": 44.911798,
      "name": "Банк"
    },
    {
      "lat": 53.180819,
      "lon": 45.009721,
      "name": "дом.рф"
    },
    {
      "lat": 53.199311,
      "lon": 45.010778,
      "name": "Авангард"
    },
    {
      "lat": 53.228405,
      "lon": 44.933618,
      "name": "Сбербанк"
    },
    {
      "lat": 53.201013,
      "lon": 45.015987,
      "name": "Русфинанс банк"
    },
    {
      "lat": 53.222708,
      "lon": 44.999836,
      "name": "Кузнецкий"
    },
    {
      "lat": 53.222811,
      "lon": 44.99983,
      "name": "Сбербанк"
    },
    {
      "lat": 53.21041,
      "lon": 44.979911,
      "name": "Сбербанк"
    },
    {
      "lat": 53.222876,
      "lon": 45.00142,
      "name": "КБ \"Ренессанс Кредит\" ООО"
    },
    {
      "lat": 53.209058,
      "lon": 44.978501,
      "name": "Росбанк"
    },
    {
      "lat": 53.202768,
      "lon": 44.978543,
      "name": "Россельхозбанк"
    },
    {
      "lat": 53.207009,
      "lon": 45.009344,
      "name": "Сбербанк"
    },
    {
      "lat": 53.202138,
      "lon": 44.99533,
      "name": "Сбербанк"
    },
    {
      "lat": 53.209744,
      "lon": 44.978161,
      "name": "Банк Кузнецкий"
    },
    {
      "lat": 53.192646,
      "lon": 45.010316,
      "name": "Россельхозбанк"
    },
    {
      "lat": 53.197041,
      "lon": 45.010271,
      "name": "ББР Банк"
    },
    {
      "lat": 53.196419,
      "lon": 45.008216,
      "name": "Открытие"
    },
    {
      "lat": 53.222265,
      "lon": 44.916873,
      "name": ""
    },
    {
      "lat": 53.194449,
      "lon": 45.021335,
      "name": "ГазпромБанк"
    },
    {
      "lat": 53.187761,
      "lon": 45.017142,
      "name": "Госстрах"
    },
    {
      "lat": 53.195227,
      "lon": 45.022355,
      "name": "Россия"
    },
    {
      "lat": 53.201983,
      "lon": 45.013024,
      "name": "Кузнецкий"
    },
    {
      "lat": 53.141401,
      "lon": 45.022033,
      "name": "Банк Кузнецкий"
    },
    {
      "lat": 53.170853,
      "lon": 45.009517,
      "name": "Совкомбанк"
    },
    {
      "lat": 53.17084,
      "lon": 45.009412,
      "name": "Хоум"
    },
    {
      "lat": 53.19999,
      "lon": 45.007692,
      "name": "Московский вексельный банк"
    },
    {
      "lat": 53.198103,
      "lon": 45.015119,
      "name": "Совкомбанк"
    },
    {
      "lat": 53.142361,
      "lon": 45.023443,
      "name": "Сбербанк"
    },
    {
      "lat": 53.184204,
      "lon": 45.062947,
      "name": "Кузнецкий"
    },
    {
      "lat": 53.171506,
      "lon": 45.010952,
      "name": "Банк Кузнецкий"
    },
    {
      "lat": 53.180616,
      "lon": 45.005901,
      "name": "Межрегиональный промышленно-строительный банк"
    },
    {
      "lat": 53.207337,
      "lon": 44.996426,
      "name": "Уралсиб"
    },
    {
      "lat": 53.209933,
      "lon": 44.991284,
      "name": "Сбербанк"
    },
    {
      "lat": 53.222945,
      "lon": 44.910072,
      "name": "ВТБ"
    },
    {
      "lat": 53.198082,
      "lon": 45.015077,
      "name": "Совкомбанк"
    },
    {
      "lat": 53.185915,
      "lon": 45.007477,
      "name": "НБД Банк"
    },
    {
      "lat": 53.202089,
      "lon": 44.995823,
      "name": "Русский Стандарт"
    },
    {
      "lat": 53.166363,
      "lon": 44.980126,
      "name": ""
    },
    {
      "lat": 53.185342,
      "lon": 45.015116,
      "name": "Инвестторгбанк"
    },
    {
      "lat": 53.21736,
      "lon": 44.949269,
      "name": "Сбербанк"
    },
    {
      "lat": 53.198163,
      "lon": 44.997352,
      "name": "КС Банк"
    },
    {
      "lat": 53.191465,
      "lon": 45.02155,
      "name": "Абсолют"
    },
    {
      "lat": 53.190771,
      "lon": 45.01804,
      "name": "Уральский банк реконструкции и развития"
    },
    {
      "lat": 53.194752,
      "lon": 45.017833,
      "name": "Альфа-Банк"
    },
    {
      "lat": 53.202454,
      "lon": 44.996928,
      "name": "Альфа-Банк"
    },
    {
      "lat": 53.188868,
      "lon": 44.978943,
      "name": "Почта Банк"
    },
    {
      "lat": 53.187806,
      "lon": 44.97969,
      "name": "Кузнецкий"
    },
    {
      "lat": 53.150971,
      "lon": 45.014247,
      "name": "Россельхозбанк"
    },
    {
      "lat": 53.1962,
      "lon": 45.004538,
      "name": "Банк Агророс"
    },
    {
      "lat": 53.187094,
      "lon": 45.014771,
      "name": "Ренессанс Кредит"
    },
    {
      "lat": 53.202495,
      "lon": 45.000475,
      "name": "Совкомбанк"
    },
    {
      "lat": 53.222046,
      "lon": 44.923434,
      "name": "Совкомбанк"
    },
    {
      "lat": 53.202246,
      "lon": 44.992503,
      "name": "Цифра брокер"
    },
    {
      "lat": 53.196332,
      "lon": 45.01722,
      "name": "Почта Банк"
    },
    {
      "lat": 53.186001,
      "lon": 45.014433,
      "name": "ВТБ"
    },
    {
      "lat": 53.186589,
      "lon": 45.0146,
      "name": "ВТБ"
    },
    {
      "lat": 53.187371,
      "lon": 45.014832,
      "name": "Новикомбанк"
    },
    {
      "lat": 53.188949,
      "lon": 45.0154,
      "name": "Промсвязьбанк"
    },
    {
      "lat": 53.20174,
      "lon": 44.997504,
      "name": "Промсвязьбанк"
    },
    {
      "lat": 53.243948,
      "lon": 45.013728,
      "name": "Кузнецкий Банк"
    },
    {
      "lat": 53.22176,
      "lon": 44.908722,
      "name": "Кузнецкий"
    },
    {
      "lat": 53.197671,
      "lon": 45.01993,
      "name": "Почта Банк"
    },
    {
      "lat": 53.209908,
      "lon": 44.978448,
      "name": "ВТБ"
    },
    {
      "lat": 53.244522,
      "lon": 45.013973,
      "name": "Сбербанк"
    },
    {
      "lat": 53.192652,
      "lon": 45.009554,
      "name": "Кузнецкий"
    },
    {
      "lat": 53.192763,
      "lon": 45.004796,
      "name": "Московский вексельный банк"
    },
    {
      "lat": 53.132831,
      "lon": 45.021092,
      "name": "ВТБ банк"
    },
    {
      "lat": 53.200435,
      "lon": 45.010239,
      "name": "Сбербанк"
    }
  ],
  "libraries": [
    {
      "lat": 53.181333,
      "lon": 45.003841,
      "name": "Научная библиотека ПГУ"
    },
    {
      "lat": 53.222566,
      "lon": 44.932439,
      "name": "Детская библиотека филиал 2"
    },
    {
      "lat": 53.211993,
      "lon": 44.988149,
      "name": "Библиотека имени Салтыкова-Щедрина"
    },
    {
      "lat": 53.196452,
      "lon": 45.020473,
      "name": "Центральная городская публичная библиотека им. В. Г. Белинского"
    },
    {
      "lat": 53.221257,
      "lon": 44.988358,
      "name": "Городская библиотека №9"
    },
    {
      "lat": 53.186839,
      "lon": 45.016622,
      "name": "Детская библиотека"
    },
    {
      "lat": 53.211776,
      "lon": 45.004818,
      "name": "Детско-юношеская библиотека"
    },
    {
      "lat": 53.167798,
      "lon": 45.010115,
      "name": "Детская библиотека №4"
    },
    {
      "lat": 53.168008,
      "lon": 45.002207,
      "name": "Городская библиотека 4"
    },
    {
      "lat": 53.23449,
      "lon": 44.924598,
      "name": "Library"
    },
    {
      "lat": 53.168469,
      "lon": 45.000284,
      "name": "Библиотека №4"
    },
    {
      "lat": 53.202893,
      "lon": 44.976808,
      "name": ""
    },
    {
      "lat": 53.187868,
      "lon": 44.972192,
      "name": "Городская библиотека №14"
    },
    {
      "lat": 53.182281,
      "lon": 45.014688,
      "name": "Пензенская областная библиотека им. М.Ю. Лермонтова"
    },
    {
      "lat": 53.222212,
      "lon": 44.9398,
      "name": ""
    }
  ],
  "cinemas": [
    {
      "lat": 53.195095,
      "lon": 45.009333,
      "name": "Современник"
    },
    {
      "lat": 53.20269,
      "lon": 44.997519,
      "name": "Роликс"
    },
    {
      "lat": 53.189703,
      "lon": 45.015847,
      "name": "Высшая Лига"
    },
    {
      "lat": 53.220816,
      "lon": 44.951656,
      "name": "Синема 5"
    },
    {
      "lat": 53.189841,
      "lon": 45.018499,
      "name": "Октябрь"
    }
  ],
  "theatres": [
    {
      "lat": 53.194449,
      "lon": 45.014447,
      "name": "Театр доктора Дапертутто"
    },
    {
      "lat": 53.179687,
      "lon": 45.010551,
      "name": "Кукольный театр"
    },
    {
      "lat": 53.22464,
      "lon": 44.998172,
      "name": "МБУ \"Центр хореографического искусства г. Пензы\""
    },
    {
      "lat": 53.194593,
      "lon": 45.014567,
      "name": "Центр театрального искусства «Дом Мейерхольда»"
    },
    {
      "lat": 53.192488,
      "lon": 45.024822,
      "name": ""
    },
    {
      "lat": 53.198386,
      "lon": 45.019259,
      "name": "Театр драмы им.Луначарского"
    },
    {
      "lat": 53.194778,
      "lon": 45.041065,
      "name": "ТЮЗ"
    },
    {
      "lat": 53.194713,
      "lon": 45.041083,
      "name": ""
    },
    {
      "lat": 53.139348,
      "lon": 45.049933,
      "name": ""
    },
    {
      "lat": 53.139223,
      "lon": 45.049989,
      "name": ""
    },
    {
      "lat": 53.139155,
      "lon": 45.050118,
      "name": ""
    },
    {
      "lat": 53.139131,
      "lon": 45.050322,
      "name": ""
    },
    {
      "lat": 53.132214,
      "lon": 45.040386,
      "name": ""
    }
  ],
  "post_offices": [
    {
      "lat": 53.222823,
      "lon": 44.928795,
      "name": "Пенза 440066"
    },
    {
      "lat": 53.218047,
      "lon": 44.929471,
      "name": "Пенза 440062"
    },
    {
      "lat": 53.187531,
      "lon": 44.967208,
      "name": "Пенза 440046"
    },
    {
      "lat": 53.189148,
      "lon": 44.980408,
      "name": "Пенза 440035"
    },
    {
      "lat": 53.243464,
      "lon": 45.013504,
      "name": ""
    },
    {
      "lat": 53.2219,
      "lon": 44.986551,
      "name": "Пенза 440028"
    },
    {
      "lat": 53.203032,
      "lon": 45.01108,
      "name": "Пенза 440001"
    },
    {
      "lat": 53.185246,
      "lon": 44.970975,
      "name": "Пенза 440049"
    },
    {
      "lat": 53.164924,
      "lon": 44.979084,
      "name": "Пенза 440031"
    },
    {
      "lat": 53.175212,
      "lon": 45.015375,
      "name": "Пенза 440052"
    },
    {
      "lat": 53.231836,
      "lon": 44.933928,
      "name": "Пенза 440047"
    },
    {
      "lat": 53.211135,
      "lon": 45.049468,
      "name": "Пенза 440013"
    },
    {
      "lat": 53.175973,
      "lon": 45.03793,
      "name": "Пенза 440023"
    },
    {
      "lat": 53.201329,
      "lon": 44.975399,
      "name": "Пенза 440018"
    },
    {
      "lat": 53.184875,
      "lon": 45.030659,
      "name": "Пенза 440026"
    },
    {
      "lat": 53.194746,
      "lon": 45.013191,
      "name": "DHL"
    },
    {
      "lat": 53.187093,
      "lon": 45.060779,
      "name": "Почта"
    },
    {
      "lat": 53.13882,
      "lon": 45.038567,
      "name": "Засечное 440514"
    },
    {
      "lat": 53.209646,
      "lon": 45.013594,
      "name": "Пенза 440061"
    },
    {
      "lat": 53.195458,
      "lon": 44.999589,
      "name": "Пони Экспресс"
    },
    {
      "lat": 53.194223,
      "lon": 45.035517,
      "name": ""
    },
    {
      "lat": 53.168633,
      "lon": 45.009321,
      "name": "Пенза 440026"
    },
    {
      "lat": 53.239071,
      "lon": 45.015917,
      "name": "Пенза 440015"
    },
    {
      "lat": 53.166463,
      "lon": 45.026776,
      "name": "Пенза 440003"
    },
    {
      "lat": 53.185312,
      "lon": 45.011948,
      "name": "Пенза 440026"
    },
    {
      "lat": 53.196961,
      "lon": 45.003237,
      "name": "Пенза 440008"
    },
    {
      "lat": 53.132917,
      "lon": 45.016393,
      "name": "Засечное 440514"
    },
    {
      "lat": 53.215594,
      "lon": 44.985336,
      "name": "Пенза 440011"
    },
    {
      "lat": 53.222584,
      "lon": 45.000017,
      "name": "СДЭК"
    },
    {
      "lat": 53.2281,
      "lon": 44.924425,
      "name": "Пенза 440060"
    },
    {
      "lat": 53.214532,
      "lon": 45.036478,
      "name": "Пенза 440067"
    },
    {
      "lat": 53.136265,
      "lon": 45.024862,
      "name": "Пенза 440068"
    },
    {
      "lat": 53.200834,
      "lon": 45.00706,
      "name": "СДЭК"
    },
    {
      "lat": 53.169095,
      "lon": 45.008867,
      "name": "СДЭК"
    },
    {
      "lat": 53.125205,
      "lon": 45.028072,
      "name": "СДЭК"
    },
    {
      "lat": 53.184812,
      "lon": 45.069232,
      "name": "СДЭК"
    },
    {
      "lat": 53.228835,
      "lon": 44.926985,
      "name": "СДЭК"
    },
    {
      "lat": 53.182279,
      "lon": 45.054423,
      "name": "СДЭК"
    },
    {
      "lat": 53.187356,
      "lon": 44.966751,
      "name": "СДЭК"
    },
    {
      "lat": 53.22023,
      "lon": 44.945068,
      "name": "СДЭК"
    },
    {
      "lat": 53.166739,
      "lon": 44.980836,
      "name": "СДЭК"
    },
    {
      "lat": 53.192732,
      "lon": 45.002958,
      "name": "СДЭК"
    },
    {
      "lat": 53.245111,
      "lon": 45.015606,
      "name": "СДЭК"
    },
    {
      "lat": 53.138651,
      "lon": 45.040136,
      "name": "СДЭК"
    },
    {
      "lat": 53.206034,
      "lon": 45.008854,
      "name": "СДЭК"
    },
    {
      "lat": 53.275213,
      "lon": 45.025709,
      "name": "СДЭК"
    },
    {
      "lat": 53.189186,
      "lon": 44.980309,
      "name": "СДЭК"
    },
    {
      "lat": 53.154762,
      "lon": 44.958176,
      "name": "СДЭК"
    },
    {
      "lat": 53.185622,
      "lon": 45.04461,
      "name": "СДЭК"
    },
    {
      "lat": 53.185651,
      "lon": 45.039096,
      "name": "КСЭ"
    },
    {
      "lat": 53.179062,
      "lon": 45.012153,
      "name": "СДЭК"
    },
    {
      "lat": 53.141262,
      "lon": 45.02194,
      "name": "СДЭК"
    },
    {
      "lat": 53.214903,
      "lon": 44.98424,
      "name": "СДЭК"
    },
    {
      "lat": 53.197744,
      "lon": 45.019708,
      "name": "Центральный почтамт"
    },
    {
      "lat": 53.270005,
      "lon": 44.923538,
      "name": "Почта №440040"
    }
  ],
  "culture": [
    {
      "lat": 53.192208,
      "lon": 45.019788,
      "name": "Пензенское региональное отделение Молодежной общероссийской общественной организации «Российские Студенческие Отряды»"
    },
    {
      "lat": 53.195925,
      "lon": 45.014827,
      "name": "Рамы Постеры"
    },
    {
      "lat": 53.192143,
      "lon": 45.01989,
      "name": "Дом молодёжи"
    },
    {
      "lat": 53.198949,
      "lon": 44.972986,
      "name": "Дворец пионеров"
    },
    {
      "lat": 53.201073,
      "lon": 44.988894,
      "name": "Киноконцертный зал"
    },
    {
      "lat": 53.202263,
      "lon": 45.017551,
      "name": ""
    },
    {
      "lat": 53.214739,
      "lon": 45.060533,
      "name": "Дом культуры"
    },
    {
      "lat": 53.220745,
      "lon": 44.976856,
      "name": ""
    },
    {
      "lat": 53.199104,
      "lon": 44.972767,
      "name": ""
    }
  ],
  "shops": [
    {
      "lat": 53.218517,
      "lon": 44.922786,
      "name": "Магнит Бережливый"
    },
    {
      "lat": 53.228453,
      "lon": 44.933287,
      "name": "Океан"
    },
    {
      "lat": 53.21693,
      "lon": 44.981786,
      "name": "Василёк"
    },
    {
      "lat": 53.207591,
      "lon": 45.00518,
      "name": "Стрела"
    },
    {
      "lat": 53.228833,
      "lon": 44.931276,
      "name": "Золотая чашка"
    },
    {
      "lat": 53.230741,
      "lon": 44.920576,
      "name": "Магнит Сальса"
    },
    {
      "lat": 53.188111,
      "lon": 44.980726,
      "name": "Скидкино"
    },
    {
      "lat": 53.224701,
      "lon": 44.986177,
      "name": "Продукты"
    },
    {
      "lat": 53.219472,
      "lon": 44.983901,
      "name": "Дельфин"
    },
    {
      "lat": 53.19715,
      "lon": 45.02072,
      "name": "Гастроном Зимний"
    },
    {
      "lat": 53.215179,
      "lon": 44.98652,
      "name": "Ручеек"
    },
    {
      "lat": 53.215789,
      "lon": 44.98282,
      "name": "Магнит Десерт"
    },
    {
      "lat": 53.223051,
      "lon": 44.926935,
      "name": "Эконом"
    },
    {
      "lat": 53.188657,
      "lon": 45.02167,
      "name": "Золотая чашка"
    },
    {
      "lat": 53.22249,
      "lon": 44.98613,
      "name": "Продукты Колобок"
    },
    {
      "lat": 53.222424,
      "lon": 44.986293,
      "name": "Продукты Премьера"
    },
    {
      "lat": 53.217907,
      "lon": 44.930256,
      "name": "Продукты"
    },
    {
      "lat": 53.184151,
      "lon": 44.970908,
      "name": "Дионис"
    },
    {
      "lat": 53.186845,
      "lon": 44.967589,
      "name": "Слобода"
    },
    {
      "lat": 53.210184,
      "lon": 45.051286,
      "name": "Гроздь"
    },
    {
      "lat": 53.222097,
      "lon": 44.911905,
      "name": "Магнит Плюшевый"
    },
    {
      "lat": 53.177219,
      "lon": 45.01338,
      "name": "Скидкино"
    },
    {
      "lat": 53.223454,
      "lon": 44.919456,
      "name": "Ремонт"
    },
    {
      "lat": 53.178765,
      "lon": 45.003307,
      "name": "Магазин"
    },
    {
      "lat": 53.199146,
      "lon": 44.995269,
      "name": "Наровчатские продукты"
    },
    {
      "lat": 53.189186,
      "lon": 44.983147,
      "name": "Кумушка"
    },
    {
      "lat": 53.174709,
      "lon": 45.015968,
      "name": "Скидкино"
    },
    {
      "lat": 53.219347,
      "lon": 44.931926,
      "name": "Магнит Глазуновский"
    },
    {
      "lat": 53.185436,
      "lon": 44.972355,
      "name": "Яна"
    },
    {
      "lat": 53.221497,
      "lon": 44.934299,
      "name": "Магнит Серебряный"
    },
    {
      "lat": 53.158577,
      "lon": 44.99177,
      "name": "Продукты"
    },
    {
      "lat": 53.166794,
      "lon": 44.993169,
      "name": "Продукты"
    },
    {
      "lat": 53.136434,
      "lon": 45.022215,
      "name": ""
    },
    {
      "lat": 53.163458,
      "lon": 44.947784,
      "name": "Солнышко"
    },
    {
      "lat": 53.199325,
      "lon": 45.01543,
      "name": "Уголок"
    },
    {
      "lat": 53.222033,
      "lon": 44.986287,
      "name": "Ласточка"
    },
    {
      "lat": 53.169524,
      "lon": 44.942434,
      "name": "Перекресток"
    },
    {
      "lat": 53.18703,
      "lon": 45.056319,
      "name": "Халял"
    },
    {
      "lat": 53.231706,
      "lon": 44.9319,
      "name": "Duty Free"
    },
    {
      "lat": 53.232598,
      "lon": 44.926541,
      "name": ""
    },
    {
      "lat": 53.233291,
      "lon": 44.927329,
      "name": ""
    },
    {
      "lat": 53.224927,
      "lon": 44.9211,
      "name": "Заветный"
    },
    {
      "lat": 53.176386,
      "lon": 45.013478,
      "name": ""
    },
    {
      "lat": 53.196871,
      "lon": 45.00442,
      "name": "Магнит Рисан"
    },
    {
      "lat": 53.203629,
      "lon": 45.010947,
      "name": "Светлячок"
    },
    {
      "lat": 53.14746,
      "lon": 45.028492,
      "name": ""
    },
    {
      "lat": 53.204087,
      "lon": 44.997084,
      "name": "Скидкино"
    },
    {
      "lat": 53.202589,
      "lon": 45.011271,
      "name": ""
    },
    {
      "lat": 53.208828,
      "lon": 44.979281,
      "name": "Скидкино"
    },
    {
      "lat": 53.205212,
      "lon": 44.965278,
      "name": "Авокадо"
    },
    {
      "lat": 53.22113,
      "lon": 44.989729,
      "name": "Скидкино"
    },
    {
      "lat": 53.221325,
      "lon": 44.98919,
      "name": "Истэк"
    },
    {
      "lat": 53.218364,
      "lon": 44.923332,
      "name": "Белый треугольник"
    },
    {
      "lat": 53.21837,
      "lon": 44.923529,
      "name": "Тернополь"
    },
    {
      "lat": 53.228536,
      "lon": 44.932972,
      "name": "Магнит Марлин"
    },
    {
      "lat": 53.210673,
      "lon": 44.972007,
      "name": "Магнит"
    },
    {
      "lat": 53.222622,
      "lon": 44.999842,
      "name": "Щедрый Бацька"
    },
    {
      "lat": 53.23264,
      "lon": 44.917174,
      "name": "Магнит Помело"
    },
    {
      "lat": 53.232497,
      "lon": 44.917731,
      "name": "ТЦ Солнечный"
    },
    {
      "lat": 53.136334,
      "lon": 45.022154,
      "name": "Duty'k"
    },
    {
      "lat": 53.210158,
      "lon": 44.97636,
      "name": "Медведь"
    },
    {
      "lat": 53.199068,
      "lon": 44.99524,
      "name": "Магнит"
    },
    {
      "lat": 53.220005,
      "lon": 44.904755,
      "name": "МагнитДатомир"
    },
    {
      "lat": 53.218478,
      "lon": 44.923322,
      "name": "Бристоль"
    },
    {
      "lat": 53.210978,
      "lon": 44.971659,
      "name": "Магнит"
    },
    {
      "lat": 53.223079,
      "lon": 44.999803,
      "name": "Магнит"
    },
    {
      "lat": 53.207389,
      "lon": 44.981524,
      "name": "Мозайка"
    },
    {
      "lat": 53.220956,
      "lon": 44.989156,
      "name": "Ладушка"
    },
    {
      "lat": 53.232853,
      "lon": 44.93462,
      "name": "Магнит"
    },
    {
      "lat": 53.223013,
      "lon": 45.051219,
      "name": "Два шага, продукты"
    },
    {
      "lat": 53.223169,
      "lon": 45.050514,
      "name": "Мясной дворик"
    },
    {
      "lat": 53.222929,
      "lon": 45.049716,
      "name": "Эконом, продукты"
    },
    {
      "lat": 53.2301,
      "lon": 44.945304,
      "name": "Магазин"
    },
    {
      "lat": 53.206101,
      "lon": 44.989246,
      "name": "Солнышко"
    },
    {
      "lat": 53.21038,
      "lon": 44.990368,
      "name": "Практикант"
    },
    {
      "lat": 53.150189,
      "lon": 45.059027,
      "name": "Барковка"
    },
    {
      "lat": 53.175216,
      "lon": 44.950127,
      "name": "Авокадо"
    },
    {
      "lat": 53.175424,
      "lon": 44.950119,
      "name": "Пиво"
    },
    {
      "lat": 53.189015,
      "lon": 44.980388,
      "name": "Дубки"
    },
    {
      "lat": 53.227539,
      "lon": 45.019423,
      "name": "Авокадо"
    },
    {
      "lat": 53.222137,
      "lon": 44.916908,
      "name": "Продукты"
    },
    {
      "lat": 53.222931,
      "lon": 44.932662,
      "name": "Островок"
    },
    {
      "lat": 53.210667,
      "lon": 45.049265,
      "name": "Самобранка"
    },
    {
      "lat": 53.21996,
      "lon": 44.941107,
      "name": "Виноградный"
    },
    {
      "lat": 53.220023,
      "lon": 44.940785,
      "name": "Виноградный"
    },
    {
      "lat": 53.219795,
      "lon": 44.942224,
      "name": "Два шага"
    },
    {
      "lat": 53.222984,
      "lon": 44.938157,
      "name": "Продукты"
    },
    {
      "lat": 53.223104,
      "lon": 44.912212,
      "name": "Заходи"
    },
    {
      "lat": 53.195334,
      "lon": 45.020013,
      "name": "Садко"
    },
    {
      "lat": 53.177974,
      "lon": 44.951384,
      "name": "Двое из ларца"
    },
    {
      "lat": 53.206557,
      "lon": 45.023744,
      "name": "Магазин \"Исток\""
    },
    {
      "lat": 53.220605,
      "lon": 44.952199,
      "name": "Магнит"
    },
    {
      "lat": 53.218683,
      "lon": 45.01943,
      "name": "Мечта"
    },
    {
      "lat": 53.218725,
      "lon": 45.019432,
      "name": ""
    },
    {
      "lat": 53.210331,
      "lon": 45.05358,
      "name": "СВН"
    },
    {
      "lat": 53.178829,
      "lon": 45.028507,
      "name": "СВН"
    },
    {
      "lat": 53.173307,
      "lon": 45.009903,
      "name": "Магнит"
    },
    {
      "lat": 53.21952,
      "lon": 45.052116,
      "name": "Чародейка"
    },
    {
      "lat": 53.218961,
      "lon": 45.019406,
      "name": ""
    },
    {
      "lat": 53.202289,
      "lon": 45.012074,
      "name": "Купец"
    },
    {
      "lat": 53.19366,
      "lon": 45.003208,
      "name": "Магнит Бериллий"
    },
    {
      "lat": 53.196225,
      "lon": 45.004103,
      "name": "Огонёк"
    },
    {
      "lat": 53.190993,
      "lon": 44.998335,
      "name": "Эверест"
    },
    {
      "lat": 53.213299,
      "lon": 45.001256,
      "name": "Продукты"
    },
    {
      "lat": 53.132469,
      "lon": 45.020969,
      "name": "Duty Free"
    },
    {
      "lat": 53.209148,
      "lon": 45.000991,
      "name": "Вишенка"
    },
    {
      "lat": 53.228734,
      "lon": 45.025685,
      "name": "Бережок"
    },
    {
      "lat": 53.18544,
      "lon": 45.064069,
      "name": ""
    },
    {
      "lat": 53.208775,
      "lon": 45.009294,
      "name": "Колбасный рай"
    },
    {
      "lat": 53.271863,
      "lon": 45.042122,
      "name": "Продукты"
    },
    {
      "lat": 53.208848,
      "lon": 45.014737,
      "name": "Продукты"
    },
    {
      "lat": 53.121734,
      "lon": 45.014579,
      "name": "Продукты"
    },
    {
      "lat": 53.134775,
      "lon": 45.019226,
      "name": "Сказка"
    },
    {
      "lat": 53.160997,
      "lon": 45.020627,
      "name": "Магнит"
    },
    {
      "lat": 53.178612,
      "lon": 45.013165,
      "name": "Магнит"
    },
    {
      "lat": 53.177682,
      "lon": 45.003981,
      "name": "Малинка"
    },
    {
      "lat": 53.21082,
      "lon": 45.012331,
      "name": "Бакалейная лавка"
    },
    {
      "lat": 53.209198,
      "lon": 45.006923,
      "name": "Авокадо"
    },
    {
      "lat": 53.214887,
      "lon": 44.984774,
      "name": "Пряник"
    },
    {
      "lat": 53.168523,
      "lon": 45.004673,
      "name": "Магнит"
    },
    {
      "lat": 53.165839,
      "lon": 45.006568,
      "name": "Duty Free"
    },
    {
      "lat": 53.204047,
      "lon": 44.98,
      "name": "Магнит Карликовый"
    },
    {
      "lat": 53.210586,
      "lon": 45.007966,
      "name": "Магнит Аджика"
    },
    {
      "lat": 53.233813,
      "lon": 44.934496,
      "name": "Скидкино"
    },
    {
      "lat": 53.229538,
      "lon": 44.932208,
      "name": "Улыбка радуги"
    },
    {
      "lat": 53.199695,
      "lon": 45.010624,
      "name": "Белоруссия"
    },
    {
      "lat": 53.168798,
      "lon": 44.985404,
      "name": "Ледяной дом"
    },
    {
      "lat": 53.166178,
      "lon": 44.981072,
      "name": "Виктория"
    },
    {
      "lat": 53.184204,
      "lon": 45.062825,
      "name": "Бакалея"
    },
    {
      "lat": 53.205873,
      "lon": 44.989129,
      "name": "Малинка"
    },
    {
      "lat": 53.20738,
      "lon": 44.986483,
      "name": "Домашний"
    },
    {
      "lat": 53.192536,
      "lon": 45.006044,
      "name": "Продукты"
    },
    {
      "lat": 53.189721,
      "lon": 45.028532,
      "name": "Авоська"
    },
    {
      "lat": 53.205097,
      "lon": 44.980209,
      "name": "Крупяной дом"
    },
    {
      "lat": 53.203552,
      "lon": 44.988652,
      "name": "Продукты"
    },
    {
      "lat": 53.254043,
      "lon": 44.911343,
      "name": "Заря"
    },
    {
      "lat": 53.168997,
      "lon": 45.009519,
      "name": "Уютный"
    },
    {
      "lat": 53.167537,
      "lon": 45.005246,
      "name": "Экономпродукты"
    },
    {
      "lat": 53.168083,
      "lon": 45.004638,
      "name": "Гроздь"
    },
    {
      "lat": 53.167508,
      "lon": 45.008171,
      "name": "Бакалейная лавка"
    },
    {
      "lat": 53.165946,
      "lon": 45.006241,
      "name": "Караван"
    },
    {
      "lat": 53.168732,
      "lon": 45.005176,
      "name": "Экономный"
    },
    {
      "lat": 53.173613,
      "lon": 45.000454,
      "name": "Продукты"
    },
    {
      "lat": 53.167639,
      "lon": 45.004258,
      "name": "Точка аппетита"
    },
    {
      "lat": 53.18343,
      "lon": 44.993365,
      "name": "Ледяной дом"
    },
    {
      "lat": 53.140071,
      "lon": 45.037787,
      "name": "Продукты"
    },
    {
      "lat": 53.138885,
      "lon": 45.038527,
      "name": "Светлячок"
    },
    {
      "lat": 53.140583,
      "lon": 45.036604,
      "name": "Экономный"
    },
    {
      "lat": 53.210205,
      "lon": 45.001889,
      "name": "Корзинка"
    },
    {
      "lat": 53.232633,
      "lon": 44.934796,
      "name": "Народный"
    },
    {
      "lat": 53.207008,
      "lon": 45.008982,
      "name": "Скидкино"
    },
    {
      "lat": 53.181162,
      "lon": 44.983981,
      "name": "Западный"
    },
    {
      "lat": 53.178626,
      "lon": 44.988869,
      "name": "Центральный"
    },
    {
      "lat": 53.214761,
      "lon": 44.985438,
      "name": "Ледяной дом"
    },
    {
      "lat": 53.140117,
      "lon": 45.021498,
      "name": "Два капитана"
    },
    {
      "lat": 53.131613,
      "lon": 45.016484,
      "name": "Приятель"
    },
    {
      "lat": 53.185725,
      "lon": 45.067455,
      "name": "Пчёлка"
    },
    {
      "lat": 53.215769,
      "lon": 44.984992,
      "name": "Бакалейная лавка"
    },
    {
      "lat": 53.21896,
      "lon": 44.986494,
      "name": "Магнит"
    },
    {
      "lat": 53.219535,
      "lon": 44.989466,
      "name": "Червонец"
    },
    {
      "lat": 53.225882,
      "lon": 44.987581,
      "name": "Продукты"
    },
    {
      "lat": 53.204748,
      "lon": 44.990565,
      "name": "Ледяной дом"
    },
    {
      "lat": 53.207084,
      "lon": 44.993581,
      "name": ""
    },