{
  "schools": [
    {
      "lat": 47.268484,
      "lon": 39.788526,
      "name": "Музыкальная"
    },
    {
      "lat": 47.214484,
      "lon": 39.619985,
      "name": "Школа Танцев U CAN Возможно Всё"
    },
    {
      "lat": 47.228567,
      "lon": 39.724051,
      "name": "Алянсь Франсез"
    },
    {
      "lat": 47.238489,
      "lon": 39.712746,
      "name": "My class"
    },
    {
      "lat": 47.223886,
      "lon": 39.730376,
      "name": "Центр «Наука. Высший балл»"
    },
    {
      "lat": 47.225613,
      "lon": 39.767792,
      "name": "Лицей ЮФУ"
    },
    {
      "lat": 47.20779,
      "lon": 39.686398,
      "name": "Юридическая гимназия №9 имени М.М. Сперанского"
    },
    {
      "lat": 47.209634,
      "lon": 39.619189,
      "name": "Школа №60"
    },
    {
      "lat": 47.211115,
      "lon": 39.641111,
      "name": "Школа №92"
    },
    {
      "lat": 47.210718,
      "lon": 39.616211,
      "name": "С(К)ОШ интернат № 38"
    },
    {
      "lat": 47.204923,
      "lon": 39.626159,
      "name": "СОШ № 61"
    },
    {
      "lat": 47.210987,
      "lon": 39.626776,
      "name": "Школа №31 имени Катаева А.С."
    },
    {
      "lat": 47.206135,
      "lon": 39.63988,
      "name": "Школа №37"
    },
    {
      "lat": 47.205129,
      "lon": 39.618255,
      "name": "Школа №87 имени Н.М. Щербакова"
    },
    {
      "lat": 47.214805,
      "lon": 39.640927,
      "name": "Гимназия №95"
    },
    {
      "lat": 47.213403,
      "lon": 39.65613,
      "name": "Донская реальная гимназия №62"
    },
    {
      "lat": 47.227919,
      "lon": 39.787239,
      "name": "Школа служебно-розыскного собаководства"
    },
    {
      "lat": 47.223136,
      "lon": 39.761369,
      "name": "Школа №26"
    },
    {
      "lat": 47.25262,
      "lon": 39.703331,
      "name": "Лицей РГУПС"
    },
    {
      "lat": 47.259439,
      "lon": 39.676948,
      "name": "школа-интернат №29"
    },
    {
      "lat": 47.296037,
      "lon": 39.739293,
      "name": "Школа №111"
    },
    {
      "lat": 47.285673,
      "lon": 39.709838,
      "name": "Школа №104"
    },
    {
      "lat": 47.286437,
      "lon": 39.707902,
      "name": "гимназия №118"
    },
    {
      "lat": 47.285833,
      "lon": 39.711521,
      "name": "Гимназия №76"
    },
    {
      "lat": 47.272835,
      "lon": 39.738799,
      "name": "Школа №97"
    },
    {
      "lat": 47.276682,
      "lon": 39.780446,
      "name": "Санаторно-лесная школа №74"
    },
    {
      "lat": 47.25573,
      "lon": 39.771831,
      "name": "Лицей №20"
    },
    {
      "lat": 47.269604,
      "lon": 39.716826,
      "name": "Школа №82"
    },
    {
      "lat": 47.227451,
      "lon": 39.619603,
      "name": "Гимназия №117"
    },
    {
      "lat": 47.298074,
      "lon": 39.710764,
      "name": "Гимназия \"Развитие\""
    },
    {
      "lat": 47.200245,
      "lon": 39.618157,
      "name": "Школа №86 имени Д.М. Пескова"
    },
    {
      "lat": 47.229448,
      "lon": 39.632122,
      "name": "Лицей №58 имени Бориса Бульбы и Сергея Щеткова"
    },
    {
      "lat": 47.258222,
      "lon": 39.688514,
      "name": "Вечерняя школа №24"
    },
    {
      "lat": 47.289619,
      "lon": 39.699005,
      "name": "Лицей №102"
    },
    {
      "lat": 47.29063,
      "lon": 39.690166,
      "name": "Школа №100"
    },
    {
      "lat": 47.285507,
      "lon": 39.762662,
      "name": "Школа №10"
    },
    {
      "lat": 47.214508,
      "lon": 39.674122,
      "name": "Экономический лицей №14"
    },
    {
      "lat": 47.235168,
      "lon": 39.634692,
      "name": "Школа №15"
    },
    {
      "lat": 47.241003,
      "lon": 39.677313,
      "name": "Лицей №57"
    },
    {
      "lat": 47.241901,
      "lon": 39.695748,
      "name": "Школа №32"
    },
    {
      "lat": 47.2388,
      "lon": 39.696363,
      "name": "Гимназия №52"
    },
    {
      "lat": 47.285359,
      "lon": 39.621624,
      "name": "Ленинаванская средняя общеобразовательная школа №13"
    },
    {
      "lat": 47.288109,
      "lon": 39.743292,
      "name": "Школа №18"
    },
    {
      "lat": 47.287454,
      "lon": 39.738577,
      "name": "Школа №16"
    },
    {
      "lat": 47.282221,
      "lon": 39.75488,
      "name": "Школа №91"
    },
    {
      "lat": 47.294387,
      "lon": 39.737283,
      "name": "Школа №105"
    },
    {
      "lat": 47.264944,
      "lon": 39.653838,
      "name": "Гимназия №46"
    },
    {
      "lat": 47.266762,
      "lon": 39.65943,
      "name": "Лицей экономический №71"
    },
    {
      "lat": 47.214697,
      "lon": 39.705745,
      "name": "Гимназия № 36"
    },
    {
      "lat": 47.250095,
      "lon": 39.719387,
      "name": "начальная школа №34"
    },
    {
      "lat": 47.246679,
      "lon": 39.715378,
      "name": "Детско-юношеская спортивная школа №10"
    },
    {
      "lat": 47.248936,
      "lon": 39.700277,
      "name": "Лицей многопрофильный №69"
    },
    {
      "lat": 47.248356,
      "lon": 39.746672,
      "name": "Школа №3"
    },
    {
      "lat": 47.226052,
      "lon": 39.729022,
      "name": "Школа-интернат для слабослышащих детей"
    },
    {
      "lat": 47.258623,
      "lon": 39.779188,
      "name": "школа-интернат №42"
    },
    {
      "lat": 47.204268,
      "lon": 39.683133,
      "name": "Школа №66"
    },
    {
      "lat": 47.222903,
      "lon": 39.742809,
      "name": "вечерняя школа №13"
    },
    {
      "lat": 47.234432,
      "lon": 39.762305,
      "name": "Дом ребёнка"
    },
    {
      "lat": 47.226101,
      "lon": 39.764115,
      "name": "лицей №13"
    },
    {
      "lat": 47.236159,
      "lon": 39.770203,
      "name": "Школа-интернат"
    },
    {
      "lat": 47.234175,
      "lon": 39.776149,
      "name": "Учебная метеорологическая станция"
    },
    {
      "lat": 47.21126,
      "lon": 39.711792,
      "name": "Автодром"
    },
    {
      "lat": 47.210806,
      "lon": 39.709211,
      "name": "Морская школа ДОСААФ"
    },
    {
      "lat": 47.188895,
      "lon": 39.636371,
      "name": "Свято-Преполовенская начальная церковно-приходская школа"
    },
    {
      "lat": 47.187303,
      "lon": 39.638995,
      "name": "Вечерняя (закрытая) школа №26"
    },
    {
      "lat": 47.299273,
      "lon": 39.714851,
      "name": "Школа №96 \"Эврика-Развитие\""
    },
    {
      "lat": 47.274878,
      "lon": 39.750597,
      "name": "Школа №84"
    },
    {
      "lat": 47.335089,
      "lon": 39.640623,
      "name": "Средняя школа №12"
    },
    {
      "lat": 47.267679,
      "lon": 39.779303,
      "name": "Семейное образование"
    },
    {
      "lat": 47.25428,
      "lon": 39.696833,
      "name": "Лицей многопрофильный №69"
    },
    {
      "lat": 47.261047,
      "lon": 39.673597,
      "name": "Школа №68"
    },
    {
      "lat": 47.233767,
      "lon": 39.597353,
      "name": "Школа №115"
    },
    {
      "lat": 47.304604,
      "lon": 39.680706,
      "name": "Социально-реабилитационный центр для несовершеннолетних"
    },
    {
      "lat": 47.191233,
      "lon": 39.636672,
      "name": "Школа №77 имени В.В. Мыльникова"
    },
    {
      "lat": 47.31342,
      "lon": 39.677932,
      "name": ""
    },
    {
      "lat": 47.317877,
      "lon": 39.679167,
      "name": ""
    },
    {
      "lat": 47.222506,
      "lon": 39.734662,
      "name": "ЧОУ \"Международная школа Алла Прима\""
    },
    {
      "lat": 47.227806,
      "lon": 39.72863,
      "name": ""
    },
    {
      "lat": 47.231888,
      "lon": 39.74444,
      "name": "Школа олимпийского резерва №7"
    },
    {
      "lat": 47.236732,
      "lon": 39.753594,
      "name": "спецшкола-интернат №28"
    },
    {
      "lat": 47.2183,
      "lon": 39.672875,
      "name": "Музыкальное училище им. Глинки"
    },
    {
      "lat": 47.231217,
      "lon": 39.729555,
      "name": "Гимназия Эстус"
    },
    {
      "lat": 47.228965,
      "lon": 39.583365,
      "name": "школа №72"
    },
    {
      "lat": 47.229652,
      "lon": 39.596178,
      "name": "школа №115"
    },
    {
      "lat": 47.269175,
      "lon": 39.752652,
      "name": "Спортивная школа Олимпийского резерва №2"
    },
    {
      "lat": 47.241955,
      "lon": 39.804193,
      "name": "Школа №22"
    },
    {
      "lat": 47.20946,
      "lon": 39.689604,
      "name": "Детско-юношеская спортивная школа №5"
    },
    {
      "lat": 47.256349,
      "lon": 39.771623,
      "name": "Детско-юношеская спортивная школа №6"
    },
    {
      "lat": 47.244217,
      "lon": 39.772912,
      "name": "Школа №17"
    },
    {
      "lat": 47.298487,
      "lon": 39.746737,
      "name": "Строительство школы"
    },
    {
      "lat": 47.214146,
      "lon": 39.668561,
      "name": "Частная школа \"Азъ Буки Веди\""
    },
    {
      "lat": 47.331091,
      "lon": 39.691025,
      "name": "Школа №75"
    },
    {
      "lat": 47.208341,
      "lon": 39.75452,
      "name": "Общеобразовательная школа №116"
    },
    {
      "lat": 47.33455,
      "lon": 39.691015,
      "name": ""
    }
  ],
  "kindergartens": [
    {
      "lat": 47.211914,
      "lon": 39.684356,
      "name": "Детский сад №2 корпус 2"
    },
    {
      "lat": 47.201016,
      "lon": 39.647179,
      "name": "Эко Садик"
    },
    {
      "lat": 47.25051,
      "lon": 39.686995,
      "name": "Детский сад №204 «Мотылёк»"
    },
    {
      "lat": 47.232677,
      "lon": 39.719859,
      "name": "Детский сад № 227 \"Снегирек\""
    },
    {
      "lat": 47.222074,
      "lon": 39.701787,
      "name": "Детский сад № 59"
    },
    {
      "lat": 47.242545,
      "lon": 39.653121,
      "name": "Любава"
    },
    {
      "lat": 47.216029,
      "lon": 39.622301,
      "name": "Art-Family"
    },
    {
      "lat": 47.203367,
      "lon": 39.633939,
      "name": "Удача"
    },
    {
      "lat": 47.226146,
      "lon": 39.749776,
      "name": "Скворечник"
    },
    {
      "lat": 47.229057,
      "lon": 39.617382,
      "name": "МБДОУ детский сад № 4"
    },
    {
      "lat": 47.204086,
      "lon": 39.628188,
      "name": "Детский сад №229"
    },
    {
      "lat": 47.209944,
      "lon": 39.62399,
      "name": "Детский сад №215"
    },
    {
      "lat": 47.209503,
      "lon": 39.637841,
      "name": "Детский сад №223 «Дружные ребята»"
    },
    {
      "lat": 47.209954,
      "lon": 39.620947,
      "name": "ДОУ № 236 «Жигули»"
    },
    {
      "lat": 47.210927,
      "lon": 39.637857,
      "name": "Детский сад №256"
    },
    {
      "lat": 47.231547,
      "lon": 39.743298,
      "name": "Детский сад №96 ?"
    },
    {
      "lat": 47.237581,
      "lon": 39.809306,
      "name": "Детский сад №209"
    },
    {
      "lat": 47.296695,
      "lon": 39.742065,
      "name": "Детский сад №83 «Теремок»"
    },
    {
      "lat": 47.232082,
      "lon": 39.780345,
      "name": "Детский сад-ясли №238 «Чебурашка»"
    },
    {
      "lat": 47.209979,
      "lon": 39.668341,
      "name": "Детский сад №66 «Светлячок»"
    },
    {
      "lat": 47.285315,
      "lon": 39.713444,
      "name": "Детский сад №267"
    },
    {
      "lat": 47.283968,
      "lon": 39.703397,
      "name": "Детский сад №288"
    },
    {
      "lat": 47.286343,
      "lon": 39.713379,
      "name": "Детский сад №272"
    },
    {
      "lat": 47.280315,
      "lon": 39.708393,
      "name": "Детский сад №74"
    },
    {
      "lat": 47.279666,
      "lon": 39.709769,
      "name": "Финист"
    },
    {
      "lat": 47.210393,
      "lon": 39.642841,
      "name": "Детский сад №198 «Одуванчик»"
    },
    {
      "lat": 47.27004,
      "lon": 39.791921,
      "name": "Детский сад №106"
    },
    {
      "lat": 47.274458,
      "lon": 39.77919,
      "name": "Детский сад №244 «Облачко»"
    },
    {
      "lat": 47.253618,
      "lon": 39.774277,
      "name": "детский сад №11/182"
    },
    {
      "lat": 47.230525,
      "lon": 39.626355,
      "name": "Детский сад №220 «Фестивальный»"
    },
    {
      "lat": 47.285721,
      "lon": 39.719744,
      "name": "Детский сад №111"
    },
    {
      "lat": 47.290989,
      "lon": 39.704859,
      "name": "Детский сад №137"
    },
    {
      "lat": 47.200815,
      "lon": 39.622531,
      "name": "Детский сад №107 «Сказка»"
    },
    {
      "lat": 47.200791,
      "lon": 39.616056,
      "name": "Детский сад №234"
    },
    {
      "lat": 47.200835,
      "lon": 39.620184,
      "name": "Детский сад №278"
    },
    {
      "lat": 47.227468,
      "lon": 39.632512,
      "name": "Детский сад № 175"
    },
    {
      "lat": 47.22943,
      "lon": 39.634356,
      "name": "Детский сад №296"
    },
    {
      "lat": 47.233233,
      "lon": 39.715767,
      "name": "Детский сад №118"
    },
    {
      "lat": 47.229667,
      "lon": 39.748344,
      "name": "Детский сад №126 \"Сказка\""
    },
    {
      "lat": 47.292527,
      "lon": 39.700287,
      "name": "Детский сад №317"
    },
    {
      "lat": 47.290895,
      "lon": 39.691928,
      "name": "Детский сад №36"
    },
    {
      "lat": 47.292459,
      "lon": 39.690904,
      "name": "Детский сад №313"
    },
    {
      "lat": 47.213679,
      "lon": 39.683553,
      "name": "Детский сад-ясли №96"
    },
    {
      "lat": 47.227328,
      "lon": 39.679463,
      "name": "Детский сад №232"
    },
    {
      "lat": 47.223339,
      "lon": 39.625552,
      "name": "Детский сад №1 «Благодатный»"
    },
    {
      "lat": 47.206366,
      "lon": 39.624555,
      "name": "Детский сад №293 «Улыбка»"
    },
    {
      "lat": 47.206221,
      "lon": 39.62762,
      "name": "Детский сад №266 «Солнечный зайчик»"
    },
    {
      "lat": 47.210377,
      "lon": 39.629051,
      "name": "Детский сад №4"
    },
    {
      "lat": 47.288404,
      "lon": 39.739689,
      "name": "Детский сад №269 «Рябинушка»"
    },
    {
      "lat": 47.280879,
      "lon": 39.761485,
      "name": "Детский сад №301 «Соловушка»"
    },
    {
      "lat": 47.284883,
      "lon": 39.755198,
      "name": "Детский сад №305"
    },
    {
      "lat": 47.286317,
      "lon": 39.75635,
      "name": "Детский сад №258"
    },
    {
      "lat": 47.282478,
      "lon": 39.80186,
      "name": "Детский сад №312"
    },
    {
      "lat": 47.261295,
      "lon": 39.649782,
      "name": "Детский сад №192 «Веселинка»"
    },
    {
      "lat": 47.259982,
      "lon": 39.645239,
      "name": "Детский сад №19 «Ласточка»"
    },
    {
      "lat": 47.263944,
      "lon": 39.658273,
      "name": "Детский сад №283 «Звёздочка»"
    },
    {
      "lat": 47.20514,
      "lon": 39.636044,
      "name": "Детский сад №250"
    },
    {
      "lat": 47.259478,
      "lon": 39.716419,
      "name": "Детский сад №121"
    },
    {
      "lat": 47.251884,
      "lon": 39.71229,
      "name": "детский сад №144 \"Вишенка\""
    },
    {
      "lat": 47.250203,
      "lon": 39.721955,
      "name": "Детский сад №272"
    },
    {
      "lat": 47.246461,
      "lon": 39.717356,
      "name": "Детский сад №233"
    },
    {
      "lat": 47.237239,
      "lon": 39.708989,
      "name": "детский сад №124 \"Колосок\""
    },
    {
      "lat": 47.23734,
      "lon": 39.70809,
      "name": "детский сад-ясли №142 \"Тополёк\""
    },
    {
      "lat": 47.225919,
      "lon": 39.724799,
      "name": "Детский сад №285"
    },
    {
      "lat": 47.292442,
      "lon": 39.706455,
      "name": "Детский сад №77"
    },
    {
      "lat": 47.301762,
      "lon": 39.734195,
      "name": "Детский сад №314"
    },
    {
      "lat": 47.236378,
      "lon": 39.799925,
      "name": "детский сад №130"
    },
    {
      "lat": 47.245309,
      "lon": 39.793163,
      "name": "Детский сад №148"
    },
    {
      "lat": 47.270254,
      "lon": 39.730233,
      "name": "Детский сад №48"
    },
    {
      "lat": 47.238579,
      "lon": 39.701273,
      "name": "детский сад-ясли №3"
    },
    {
      "lat": 47.230697,
      "lon": 39.749043,
      "name": "Детский сад №24"
    },
    {
      "lat": 47.229104,
      "lon": 39.753262,
      "name": "Детский сад №34"
    },
    {
      "lat": 47.222051,
      "lon": 39.730469,
      "name": "Детский сад №50"
    },
    {
      "lat": 47.224706,
      "lon": 39.73807,
      "name": "Детский сад №70"
    },
    {
      "lat": 47.225325,
      "lon": 39.666657,
      "name": "Детский сад №131"
    },
    {
      "lat": 47.232823,
      "lon": 39.640443,
      "name": "Кот в Шляпе"
    },
    {
      "lat": 47.239158,
      "lon": 39.771599,
      "name": ""
    },
    {
      "lat": 47.288776,
      "lon": 39.755775,
      "name": "Детский сад № 36"
    },
    {
      "lat": 47.231568,
      "lon": 39.735265,
      "name": "Детский сад №263"
    },
    {
      "lat": 47.234047,
      "lon": 39.602956,
      "name": "Детский сад №8 «Солнечный город»"
    },
    {
      "lat": 47.226263,
      "lon": 39.693803,
      "name": "детский сад №123"
    },
    {
      "lat": 47.225379,
      "lon": 39.693227,
      "name": "детский сад №123 \"Феникс\""
    },
    {
      "lat": 47.227464,
      "lon": 39.751293,
      "name": "Детский сад «8 марта»"
    },
    {
      "lat": 47.230837,
      "lon": 39.753049,
      "name": "детский сад №24"
    },
    {
      "lat": 47.229013,
      "lon": 39.758573,
      "name": "Детский сад №100"
    },
    {
      "lat": 47.228933,
      "lon": 39.761778,
      "name": "Детский сад №136"
    },
    {
      "lat": 47.229813,
      "lon": 39.760163,
      "name": "Детский сад №44"
    },
    {
      "lat": 47.226973,
      "lon": 39.765336,
      "name": "детский сад №152"
    },
    {
      "lat": 47.297604,
      "lon": 39.705799,
      "name": "Детский сад №49"
    },
    {
      "lat": 47.219531,
      "lon": 39.712132,
      "name": ""
    },
    {
      "lat": 47.243815,
      "lon": 39.779372,
      "name": "Детский сад №99"
    },
    {
      "lat": 47.191664,
      "lon": 39.646076,
      "name": "Детский сад №219 «Кораблик»"
    },
    {
      "lat": 47.296533,
      "lon": 39.709499,
      "name": "Детский сад №42"
    },
    {
      "lat": 47.300041,
      "lon": 39.721432,
      "name": "Детский сад №304"
    },
    {
      "lat": 47.248595,
      "lon": 39.771006,
      "name": "детский сад №108"
    },
    {
      "lat": 47.248212,
      "lon": 39.769577,
      "name": "детский сад №146"
    },
    {
      "lat": 47.257092,
      "lon": 39.770562,
      "name": "детский сад №246"
    },
    {
      "lat": 47.288335,
      "lon": 39.764391,
      "name": "Детский сад №11 «Медвежонок»"
    },
    {
      "lat": 47.237752,
      "lon": 39.738177,
      "name": "детский сад №115"
    },
    {
      "lat": 47.269675,
      "lon": 39.810821,
      "name": "Детский сад №239 «Лесная сказка»"
    },
    {
      "lat": 47.234651,
      "lon": 39.599965,
      "name": "Детский сад №12 «Россияночка»"
    },
    {
      "lat": 47.248358,
      "lon": 39.733489,
      "name": "Детский сад №225 «Репка»"
    },
    {
      "lat": 47.210683,
      "lon": 39.682433,
      "name": "детский сад №141"
    },
    {
      "lat": 47.215708,
      "lon": 39.661725,
      "name": "Детский сад №169"
    },
    {
      "lat": 47.20751,
      "lon": 39.685059,
      "name": "Детский сад №207"
    },
    {
      "lat": 47.198088,
      "lon": 39.674623,
      "name": "Детский сад №224"
    },
    {
      "lat": 47.210766,
      "lon": 39.649288,
      "name": "Детский сад №284"
    },
    {
      "lat": 47.218368,
      "lon": 39.719497,
      "name": "Детский сад №2"
    },
    {
      "lat": 47.208494,
      "lon": 39.650309,
      "name": "Детский сад №57 «Журавушка»"
    },
    {
      "lat": 47.218495,
      "lon": 39.68138,
      "name": "Детский сад №5 корпус 1"
    },
    {
      "lat": 47.190872,
      "lon": 39.625545,
      "name": "Детский сад №92 «Незабудка»"
    },
    {
      "lat": 47.223338,
      "lon": 39.712941,
      "name": ""
    },
    {
      "lat": 47.218186,
      "lon": 39.728693,
      "name": "Детский сад №158"
    },
    {
      "lat": 47.234137,
      "lon": 39.591957,
      "name": "детский сад №210"
    },
    {
      "lat": 47.234682,
      "lon": 39.594984,
      "name": "Детский сад №84"
    },
    {
      "lat": 47.312543,
      "lon": 39.677003,
      "name": ""
    },
    {
      "lat": 47.312721,
      "lon": 39.676424,
      "name": ""
    },
    {
      "lat": 47.314091,
      "lon": 39.679109,
      "name": ""
    },
    {
      "lat": 47.317624,
      "lon": 39.680041,
      "name": "детский сад"
    },
    {
      "lat": 47.200716,
      "lon": 39.648814,
      "name": "детский сад"
    },
    {
      "lat": 47.198884,
      "lon": 39.650027,
      "name": "детский сад"
    },
    {
      "lat": 47.238841,
      "lon": 39.808106,
      "name": "Детский сад №280"
    },
    {
      "lat": 47.236952,
      "lon": 39.807605,
      "name": "Детский сад №257"
    },
    {
      "lat": 47.227772,
      "lon": 39.58556,
      "name": ""
    },
    {
      "lat": 47.230478,
      "lon": 39.586448,
      "name": "Детский сад №86"
    },
    {
      "lat": 47.230787,
      "lon": 39.597147,
      "name": ""
    },
    {
      "lat": 47.228293,
      "lon": 39.596965,
      "name": ""
    },
    {
      "lat": 47.228381,
      "lon": 39.595714,
      "name": ""
    },
    {
      "lat": 47.225605,
      "lon": 39.779575,
      "name": "Детский сад №59"
    },
    {
      "lat": 47.206865,
      "lon": 39.640786,
      "name": "Детский сад №107 «Сказка»"
    },
    {
      "lat": 47.214228,
      "lon": 39.661724,
      "name": "Детский сад №85"
    },
    {
      "lat": 47.254911,
      "lon": 39.768465,
      "name": ""
    },
    {
      "lat": 47.240565,
      "lon": 39.803775,
      "name": "Детский сад №55"
    },
    {
      "lat": 47.253709,
      "lon": 39.713485,
      "name": ""
    },
    {
      "lat": 47.260286,
      "lon": 39.694049,
      "name": "Детский сад №58"
    },
    {
      "lat": 47.21421,
      "lon": 39.642832,
      "name": "Детский сад №177"
    },
    {
      "lat": 47.214266,
      "lon": 39.638141,
      "name": "Детский сад №213 «Колокольчик»"
    },
    {
      "lat": 47.242281,
      "lon": 39.806535,
      "name": "Детский сад №56"
    },
    {
      "lat": 47.326474,
      "lon": 39.685942,
      "name": ""
    },
    {
      "lat": 47.33411,
      "lon": 39.639708,
      "name": "Детский сад №12 Красная шапочка"
    },
    {
      "lat": 47.213249,
      "lon": 39.662737,
      "name": "Детский сад «Умка»"
    },
    {
      "lat": 47.214915,
      "lon": 39.670904,
      "name": "Детский сад «Алиса»"
    },
    {
      "lat": 47.212709,
      "lon": 39.688891,
      "name": "Детский сад №2 Ивушка"
    },
    {
      "lat": 47.214595,
      "lon": 39.684376,
      "name": "Детский сад №5 «Теремок»"
    },
    {
      "lat": 47.206568,
      "lon": 39.755665,
      "name": "Детский сад №23 \"Причал\""
    },
    {
      "lat": 47.246757,
      "lon": 39.808973,
      "name": ""
    }
  ],
  "hospitals": [
    {
      "lat": 47.233404,
      "lon": 39.709663,
      "name": "Больница скорой медицинской помощи"
    },
    {
      "lat": 47.233732,
      "lon": 39.713042,
      "name": "Родильное отделение"
    },
    {
      "lat": 47.260754,
      "lon": 39.646664,
      "name": "Консультативно-диагностическая поликлиника"
    },
    {
      "lat": 47.234818,
      "lon": 39.709972,
      "name": "6 и 2 детское инфекционное отделение"
    },
    {
      "lat": 47.234748,
      "lon": 39.709967,
      "name": "Детская реанимация"
    },
    {
      "lat": 47.290595,
      "lon": 39.785859,
      "name": "Областной клинический центр фтизиопульмонологии"
    },
    {
      "lat": 47.21944,
      "lon": 39.717668,
      "name": "Медико-санитарная часть ГУВД"
    },
    {
      "lat": 47.259511,
      "lon": 39.806121,
      "name": ""
    },
    {
      "lat": 47.220464,
      "lon": 39.724107,
      "name": "Центр по профилактике и борьбе со СПИДом и инфекционными заболеваниями Ростовской области"
    },
    {
      "lat": 47.247422,
      "lon": 39.743317,
      "name": "Южный окружной медицинский центр ФМБА России"
    },
    {
      "lat": 47.248864,
      "lon": 39.749194,
      "name": "МБУЗ Городская поликлиника n5"
    },
    {
      "lat": 47.288421,
      "lon": 39.758401,
      "name": "Городская поликлиника №4"
    },
    {
      "lat": 47.234977,
      "lon": 39.710964,
      "name": "Терапевтическое отделение N2"
    },
    {
      "lat": 47.235316,
      "lon": 39.711737,
      "name": "Физио-терапевтическое отделение"
    },
    {
      "lat": 47.23548,
      "lon": 39.711705,
      "name": "Женская консультация"
    },
    {
      "lat": 47.27496,
      "lon": 39.706921,
      "name": "Центр Репродукции Человека и ЭКО"
    },
    {
      "lat": 47.207941,
      "lon": 39.685148,
      "name": "Детская городская поликлиника Железнодорожного района"
    },
    {
      "lat": 47.272484,
      "lon": 39.706763,
      "name": "Реанимация №7"
    },
    {
      "lat": 47.205847,
      "lon": 39.622363,
      "name": "Родильный дом больницы № 020"
    },
    {
      "lat": 47.20559,
      "lon": 39.623616,
      "name": "Городская больница № 020"
    },
    {
      "lat": 47.234105,
      "lon": 39.71042,
      "name": "Центральная городская больница №1 им. Н.А. Семашко"
    },
    {
      "lat": 47.223343,
      "lon": 39.618833,
      "name": "Ростовская областная клиническая больница"
    },
    {
      "lat": 47.223773,
      "lon": 39.623396,
      "name": "Детская областная больница"
    },
    {
      "lat": 47.257979,
      "lon": 39.768465,
      "name": "Областная больница № 2"
    },
    {
      "lat": 47.272991,
      "lon": 39.708284,
      "name": "БСМП-2"
    },
    {
      "lat": 47.229812,
      "lon": 39.778638,
      "name": "Больница №6"
    },
    {
      "lat": 47.233091,
      "lon": 39.711079,
      "name": "Инфекционное отделение"
    },
    {
      "lat": 47.234437,
      "lon": 39.711746,
      "name": "Неврологическое отделение, Отделение функциональной диагностики, Физиотерапевтическое отделение"
    },
    {
      "lat": 47.25861,
      "lon": 39.672733,
      "name": "1602 Военный клинический госпиталь"
    },
    {
      "lat": 47.290604,
      "lon": 39.785838,
      "name": "Специализированная туберкулёзная больница"
    },
    {
      "lat": 47.216225,
      "lon": 39.676664,
      "name": "Больница №7"
    },
    {
      "lat": 47.226459,
      "lon": 39.688089,
      "name": "Дорожная клиническая больница СКЖД"
    },
    {
      "lat": 47.220064,
      "lon": 39.659314,
      "name": "Родильный дом №5"
    },
    {
      "lat": 47.240108,
      "lon": 39.691124,
      "name": "РНИИАП"
    },
    {
      "lat": 47.247594,
      "lon": 39.743174,
      "name": "Корпус №3 Клинической больницы №1 ФГБУЗ ЮОМЦ ФМБА России"
    },
    {
      "lat": 47.247337,
      "lon": 39.743532,
      "name": "Корпус №1-2 Клинической больницы №1 ФГБУЗ ЮОМЦ ФМБА России"
    },
    {
      "lat": 47.274606,
      "lon": 39.707233,
      "name": "Ростовский Перинатальный центр"
    },
    {
      "lat": 47.297988,
      "lon": 39.733213,
      "name": "ГОУЗ Детский санаторий \"Ромашка\""
    },
    {
      "lat": 47.258623,
      "lon": 39.769738,
      "name": "Родильный дом Областной больницы № 2"
    },
    {
      "lat": 47.257221,
      "lon": 39.767151,
      "name": "Урологическое отделение"
    },
    {
      "lat": 47.256818,
      "lon": 39.76789,
      "name": "Терапевтический корпус"
    },
    {
      "lat": 47.2577,
      "lon": 39.767666,
      "name": "Терапевтический корпус № 2"
    },
    {
      "lat": 47.258052,
      "lon": 39.769055,
      "name": "Отделение функциональной диагностики"
    },
    {
      "lat": 47.23808,
      "lon": 39.755713,
      "name": "Ростовский научно-исследовательский онкологический институт"
    },
    {
      "lat": 47.22942,
      "lon": 39.731328,
      "name": "Детская городская больница № 2"
    },
    {
      "lat": 47.259489,
      "lon": 39.679319,
      "name": "Семья"
    },
    {
      "lat": 47.219803,
      "lon": 39.72481,
      "name": "Противотуберкулезный клинический диспансер"
    },
    {
      "lat": 47.223356,
      "lon": 39.730641,
      "name": "Городская больница №4"
    },
    {
      "lat": 47.222271,
      "lon": 39.728194,
      "name": "Противотуберкулезный клинический диспансер ростовской области"
    },
    {
      "lat": 47.220185,
      "lon": 39.725754,
      "name": "Противотуберкулезный клинический диспансер"
    },
    {
      "lat": 47.237025,
      "lon": 39.755715,
      "name": ""
    },
    {
      "lat": 47.229523,
      "lon": 39.762059,
      "name": "Родильный дом №2"
    },
    {
      "lat": 47.236894,
      "lon": 39.764367,
      "name": "Госпиталь для ветеранов войны РО"
    },
    {
      "lat": 47.259121,
      "lon": 39.770426,
      "name": "ОП Гемодиализный центр"
    },
    {
      "lat": 47.233698,
      "lon": 39.707917,
      "name": "областной Психоневрологический диспансер"
    },
    {
      "lat": 47.217164,
      "lon": 39.674123,
      "name": "Детская поликлиника"
    },
    {
      "lat": 47.325541,
      "lon": 39.787019,
      "name": "Областная инфекционная больница"
    },
    {
      "lat": 47.247861,
      "lon": 39.744993,
      "name": "Сосновая дача"
    }
  ],
  "clinics": [
    {
      "lat": 47.207994,
      "lon": 39.621161,
      "name": "Детский неврологический центр \"Авиценна\""
    },
    {
      "lat": 47.27068,
      "lon": 39.791533,
      "name": "Филиал 1-ой детской поликлиники первомайского района"
    },
    {
      "lat": 47.220794,
      "lon": 39.723916,
      "name": "БАК лаборатория"
    },
    {
      "lat": 47.221244,
      "lon": 39.724667,
      "name": "Поликлиника №10"
    },
    {
      "lat": 47.232613,
      "lon": 39.765576,
      "name": "Поликлиническое отделение Детской поликлиники №1 (Пролетарский район)"
    },
    {
      "lat": 47.268109,
      "lon": 39.683395,
      "name": "Евродон"
    },
    {
      "lat": 47.275154,
      "lon": 39.739805,
      "name": "Городская студенческая поликлиника №4"
    },
    {
      "lat": 47.265738,
      "lon": 39.666566,
      "name": "Поликлиника №41"
    },
    {
      "lat": 47.227701,
      "lon": 39.75429,
      "name": "Клиника восточной медицины «Тибетский доктор»"
    },
    {
      "lat": 47.231185,
      "lon": 39.619282,
      "name": "Городская поликлиника N42. Женская консультация"
    },
    {
      "lat": 47.232597,
      "lon": 39.633111,
      "name": "Городская поликлиника N42"
    },
    {
      "lat": 47.192569,
      "lon": 39.63996,
      "name": "Детское отделение"
    },
    {
      "lat": 47.231848,
      "lon": 39.631373,
      "name": "Детская городская поликлиника №45"
    },
    {
      "lat": 47.224438,
      "lon": 39.730685,
      "name": "Наука"
    },
    {
      "lat": 47.223907,
      "lon": 39.726482,
      "name": "УРО-ПРО"
    },
    {
      "lat": 47.223456,
      "lon": 39.724279,
      "name": "Городская поликлиника №10"
    },
    {
      "lat": 47.2248,
      "lon": 39.729103,
      "name": "Городская поликлиника №10"
    },
    {
      "lat": 47.227411,
      "lon": 39.7299,
      "name": "Центромед"
    },
    {
      "lat": 47.230898,
      "lon": 39.735152,
      "name": "Биолекарь"
    },
    {
      "lat": 47.22558,
      "lon": 39.734602,
      "name": "Эскулап"
    },
    {
      "lat": 47.247532,
      "lon": 39.720983,
      "name": "Детская поликлиника 5"
    },
    {
      "lat": 47.231171,
      "lon": 39.628674,
      "name": "Наука"
    },
    {
      "lat": 47.216064,
      "lon": 39.699342,
      "name": "Детская поликлиника 8"
    },
    {
      "lat": 47.23328,
      "lon": 39.739209,
      "name": "Женское здоровье"
    },
    {
      "lat": 47.253033,
      "lon": 39.794787,
      "name": "Детская поликлиника #1"
    },
    {
      "lat": 47.256525,
      "lon": 39.643037,
      "name": "Поликлиника №41"
    },
    {
      "lat": 47.260477,
      "lon": 39.688105,
      "name": "Геном-Дон"
    },
    {
      "lat": 47.288402,
      "lon": 39.759638,
      "name": "Клинико-диагностический центр «Здоровье»"
    },
    {
      "lat": 47.226384,
      "lon": 39.70615,
      "name": "Да Винчи"
    },
    {
      "lat": 47.288541,
      "lon": 39.760666,
      "name": "Отделение МРТ"
    },
    {
      "lat": 47.287095,
      "lon": 39.705278,
      "name": "Семейный медицинский центр"
    },
    {
      "lat": 47.236803,
      "lon": 39.694705,
      "name": "МБУЗ КДЦ \"Здоровье\""
    },
    {
      "lat": 47.225645,
      "lon": 39.695906,
      "name": "МБУЗ Клинико-диагностический центр \"Здоровье\""
    },
    {
      "lat": 47.209102,
      "lon": 39.668333,
      "name": "Выше радуги"
    },
    {
      "lat": 47.262541,
      "lon": 39.684576,
      "name": "Альянс - хирургия"
    },
    {
      "lat": 47.192536,
      "lon": 39.63965,
      "name": "Взрослое отделение"
    },
    {
      "lat": 47.24592,
      "lon": 39.676217,
      "name": "Мой малыш"
    },
    {
      "lat": 47.230932,
      "lon": 39.6175,
      "name": "Поликлиника №42"
    },
    {
      "lat": 47.224517,
      "lon": 39.625204,
      "name": "Гемотест"
    },
    {
      "lat": 47.288378,
      "lon": 39.760447,
      "name": "Центр ядерной медицины"
    },
    {
      "lat": 47.225479,
      "lon": 39.739347,
      "name": "Евродон"
    },
    {
      "lat": 47.288693,
      "lon": 39.757946,
      "name": "ДГП #4"
    },
    {
      "lat": 47.232371,
      "lon": 39.73425,
      "name": ""
    },
    {
      "lat": 47.227241,
      "lon": 39.746749,
      "name": "РЖД-Медицина"
    },
    {
      "lat": 47.227826,
      "lon": 39.729078,
      "name": "МастерСлух"
    },
    {
      "lat": 47.239643,
      "lon": 39.736063,
      "name": "Госпиталь современной медицины"
    },
    {
      "lat": 47.228057,
      "lon": 39.7075,
      "name": "Клиника профессора Буштыревой"
    },
    {
      "lat": 47.2239,
      "lon": 39.621078,
      "name": "МастерСлух"
    },
    {
      "lat": 47.29608,
      "lon": 39.712197,
      "name": "МастерСлух"
    },
    {
      "lat": 47.289844,
      "lon": 39.708114,
      "name": "Медицина"
    },
    {
      "lat": 47.289828,
      "lon": 39.708706,
      "name": "Виват"
    },
    {
      "lat": 47.312113,
      "lon": 39.681603,
      "name": "Евродон"
    },
    {
      "lat": 47.225252,
      "lon": 39.594914,
      "name": "Евродон"
    },
    {
      "lat": 47.252841,
      "lon": 39.770366,
      "name": "Евродон"
    },
    {
      "lat": 47.249138,
      "lon": 39.719728,
      "name": "Евродон"
    },
    {
      "lat": 47.235571,
      "lon": 39.804856,
      "name": "Евродон"
    },
    {
      "lat": 47.224947,
      "lon": 39.617811,
      "name": "Евродон"
    },
    {
      "lat": 47.211239,
      "lon": 39.675373,
      "name": "Евродон"
    },
    {
      "lat": 47.209056,
      "lon": 39.635555,
      "name": "Евродон"
    },
    {
      "lat": 47.225863,
      "lon": 39.739999,
      "name": "Клиника Тимура Мамедова"
    },
    {
      "lat": 47.248941,
      "lon": 39.731638,
      "name": "Мать и дитя"
    },
    {
      "lat": 47.303138,
      "lon": 39.7305,
      "name": "Умная клиника"
    },
    {
      "lat": 47.258432,
      "lon": 39.709724,
      "name": "Умная клиника"
    },
    {
      "lat": 47.213946,
      "lon": 39.623177,
      "name": "КДЦ Здоровье"
    },
    {
      "lat": 47.26545,
      "lon": 39.678584,
      "name": "Для своих"
    },
    {
      "lat": 47.206715,
      "lon": 39.622253,
      "name": "Поликлиника №20"
    },
    {
      "lat": 47.206323,
      "lon": 39.622562,
      "name": "Детская поликлиника №45"
    },
    {
      "lat": 47.233288,
      "lon": 39.716791,
      "name": "Детская поликлиника №2"
    },
    {
      "lat": 47.224359,
      "lon": 39.617222,
      "name": "Поликлиника"
    },
    {
      "lat": 47.224216,
      "lon": 39.622485,
      "name": "Детская консультационная поликлиника"
    },
    {
      "lat": 47.235579,
      "lon": 39.712122,
      "name": "Детская поликлиника"
    },
    {
      "lat": 47.235001,
      "lon": 39.710914,
      "name": "Инфекционное отделение"
    },
    {
      "lat": 47.233522,
      "lon": 39.711689,
      "name": "Хирургическое отделение"
    },
    {
      "lat": 47.192599,
      "lon": 39.639768,
      "name": "Поликлиника №14"
    },
    {
      "lat": 47.233674,
      "lon": 39.601879,
      "name": "Детская поликлиника № 45"
    },
    {
      "lat": 47.228245,
      "lon": 39.695395,
      "name": "Клинико-диагностический центр \"Здоровье\""
    },
    {
      "lat": 47.234131,
      "lon": 39.707774,
      "name": "Детское отделение"
    },
    {
      "lat": 47.226788,
      "lon": 39.705416,
      "name": "Городская больница №8"
    },
    {
      "lat": 47.222739,
      "lon": 39.70162,
      "name": "Поликлиника №8"
    },
    {
      "lat": 47.22303,
      "lon": 39.72978,
      "name": "Альфа-Центр Здоровья"
    },
    {
      "lat": 47.22765,
      "lon": 39.751665,
      "name": "Поликлиника КБ №1 Южного окружного медицинского центра"
    },
    {
      "lat": 47.235559,
      "lon": 39.712555,
      "name": "Взрослая поликлиника"
    },
    {
      "lat": 47.23341,
      "lon": 39.712221,
      "name": "Лор отделение"
    },
    {
      "lat": 47.308836,
      "lon": 39.728303,
      "name": "Центр Репродукции Человека и ЭКО"
    },
    {
      "lat": 47.325677,
      "lon": 39.684728,
      "name": "Детская поликлиника №18"
    }
  ],
  "pharmacies": [
    {
      "lat": 47.260103,
      "lon": 39.690259,
      "name": "Три фарма"
    },
    {
      "lat": 47.259564,
      "lon": 39.691141,
      "name": "Коммерсант"
    },
    {
      "lat": 47.293964,
      "lon": 39.714437,
      "name": "Аптека \"Нектар\""
    },
    {
      "lat": 47.208027,
      "lon": 39.62084,
      "name": "Просто Аптека"
    },
    {
      "lat": 47.207328,
      "lon": 39.618504,
      "name": "Донская Аптека"
    },
    {
      "lat": 47.207962,
      "lon": 39.618265,
      "name": "Эко"
    },
    {
      "lat": 47.207616,
      "lon": 39.634939,
      "name": "Просто Аптека"
    },
    {
      "lat": 47.207243,
      "lon": 39.615652,
      "name": ""
    },
    {
      "lat": 47.206778,
      "lon": 39.622041,
      "name": ""
    },
    {
      "lat": 47.207626,
      "lon": 39.626842,
      "name": "Радуга"
    },
    {
      "lat": 47.208503,
      "lon": 39.629735,
      "name": ""
    },
    {
      "lat": 47.211376,
      "lon": 39.644813,
      "name": ""
    },
    {
      "lat": 47.231263,
      "lon": 39.725603,
      "name": ""
    },
    {
      "lat": 47.206974,
      "lon": 39.629966,
      "name": ""
    },
    {
      "lat": 47.258194,
      "lon": 39.647467,
      "name": "Пчёлка"
    },
    {
      "lat": 47.25766,
      "lon": 39.646482,
      "name": ""
    },
    {
      "lat": 47.289519,
      "lon": 39.705813,
      "name": "Домашняя аптека"
    },
    {
      "lat": 47.220297,
      "lon": 39.632481,
      "name": "Социальная Аптека"
    },
    {
      "lat": 47.209833,
      "lon": 39.670257,
      "name": ""
    },
    {
      "lat": 47.209598,
      "lon": 39.671313,
      "name": ""
    },
    {
      "lat": 47.210175,
      "lon": 39.67371,
      "name": ""
    },
    {
      "lat": 47.20084,
      "lon": 39.665993,
      "name": ""
    },
    {
      "lat": 47.2113,
      "lon": 39.671306,
      "name": "Социальная Аптека"
    },
    {
      "lat": 47.211328,
      "lon": 39.671594,
      "name": "Юг Фарма"
    },
    {
      "lat": 47.226113,
      "lon": 39.757725,
      "name": "Радуга"
    },
    {
      "lat": 47.229627,
      "lon": 39.758096,
      "name": "Аптеки Дона №23"
    },
    {
      "lat": 47.231939,
      "lon": 39.740011,
      "name": ""
    },
    {
      "lat": 47.293714,
      "lon": 39.702361,
      "name": ""
    },
    {
      "lat": 47.267836,
      "lon": 39.787272,
      "name": ""
    },
    {
      "lat": 47.267716,
      "lon": 39.787814,
      "name": ""
    },
    {
      "lat": 47.233216,
      "lon": 39.765391,
      "name": ""
    },
    {
      "lat": 47.266395,
      "lon": 39.785806,
      "name": ""
    },
    {
      "lat": 47.203279,
      "lon": 39.631406,
      "name": "Социальная аптека"
    },
    {
      "lat": 47.296067,
      "lon": 39.715369,
      "name": ""
    },
    {
      "lat": 47.234764,
      "lon": 39.713012,
      "name": ""
    },
    {
      "lat": 47.232056,
      "lon": 39.717341,
      "name": ""
    },
    {
      "lat": 47.233,
      "lon": 39.716913,
      "name": ""
    },
    {
      "lat": 47.230709,
      "lon": 39.619188,
      "name": ""
    },
    {
      "lat": 47.26051,
      "lon": 39.68982,
      "name": "Юг-Фарма"
    },
    {
      "lat": 47.228622,
      "lon": 39.753291,
      "name": "ЮГ Фарма"
    },
    {
      "lat": 47.226726,
      "lon": 39.628867,
      "name": ""
    },
    {
      "lat": 47.225908,
      "lon": 39.705682,
      "name": "Аптека 36,6"
    },
    {
      "lat": 47.226301,
      "lon": 39.705692,
      "name": "Юг-Фарма"
    },
    {
      "lat": 47.26677,
      "lon": 39.665546,
      "name": ""
    },
    {
      "lat": 47.220736,
      "lon": 39.632166,
      "name": "Юг-Фарма"
    },
    {
      "lat": 47.249195,
      "lon": 39.696762,
      "name": ""
    },
    {
      "lat": 47.222636,
      "lon": 39.724604,
      "name": "Мир здоровья"
    },
    {
      "lat": 47.224097,
      "lon": 39.727378,
      "name": "Актека 24"
    },
    {
      "lat": 47.217138,
      "lon": 39.700653,
      "name": ""
    },
    {
      "lat": 47.261233,
      "lon": 39.806742,
      "name": "Аптека №223"
    },
    {
      "lat": 47.231875,
      "lon": 39.761849,
      "name": ""
    },
    {
      "lat": 47.259564,
      "lon": 39.717188,
      "name": "Нектар"
    },
    {
      "lat": 47.259305,
      "lon": 39.717052,
      "name": "Юг-Фарма"
    },
    {
      "lat": 47.229381,
      "lon": 39.682257,
      "name": ""
    },
    {
      "lat": 47.227973,
      "lon": 39.687557,
      "name": ""
    },
    {
      "lat": 47.211474,
      "lon": 39.618014,
      "name": "Дешевая Аптека"
    },
    {
      "lat": 47.265465,
      "lon": 39.72021,
      "name": ""
    },
    {
      "lat": 47.226445,
      "lon": 39.717258,
      "name": "Юг-Фарма"
    },
    {
      "lat": 47.230172,
      "lon": 39.71563,
      "name": "Спортивная аптека №2"
    },
    {
      "lat": 47.230952,
      "lon": 39.761705,
      "name": ""
    },
    {
      "lat": 47.207971,
      "lon": 39.641316,
      "name": ""
    },
    {
      "lat": 47.285595,
      "lon": 39.714829,
      "name": ""
    },
    {
      "lat": 47.228034,
      "lon": 39.694582,
      "name": ""
    },
    {
      "lat": 47.227119,
      "lon": 39.742111,
      "name": ""
    },
    {
      "lat": 47.225414,
      "lon": 39.733911,
      "name": "Аптека \"Фармация\""
    },
    {
      "lat": 47.223667,
      "lon": 39.723676,
      "name": "Юг Фарма"
    },
    {
      "lat": 47.251344,
      "lon": 39.71139,
      "name": "AMS Аптека"
    },
    {
      "lat": 47.289403,
      "lon": 39.704716,
      "name": "Медтехника №1"
    },
    {
      "lat": 47.289448,
      "lon": 39.70514,
      "name": "Три Фарма"
    },
    {
      "lat": 47.28267,
      "lon": 39.756317,
      "name": "Легко"
    },
    {
      "lat": 47.230804,
      "lon": 39.61104,
      "name": "36,6"
    },
    {
      "lat": 47.248714,
      "lon": 39.713177,
      "name": "Радуга"
    },
    {
      "lat": 47.256051,
      "lon": 39.768293,
      "name": "36,6"
    },
    {
      "lat": 47.275479,
      "lon": 39.748945,
      "name": "36,6"
    },
    {
      "lat": 47.281179,
      "lon": 39.71739,
      "name": "36,6"
    },
    {
      "lat": 47.282836,
      "lon": 39.707326,
      "name": "36,6"
    },
    {
      "lat": 47.295621,
      "lon": 39.703265,
      "name": "36,6"
    },
    {
      "lat": 47.248825,
      "lon": 39.748065,
      "name": "Аптека №3"
    },
    {
      "lat": 47.238247,
      "lon": 39.694513,
      "name": "Хорошая аптека"
    },
    {
      "lat": 47.237759,
      "lon": 39.698377,
      "name": "Нектар"
    },
    {
      "lat": 47.27568,
      "lon": 39.782524,
      "name": ""
    },
    {
      "lat": 47.264374,
      "lon": 39.776976,
      "name": ""
    },
    {
      "lat": 47.225735,
      "lon": 39.720033,
      "name": "Социальная Аптека"
    },
    {
      "lat": 47.260386,
      "lon": 39.717447,
      "name": "Просто аптека"
    },
    {
      "lat": 47.262269,
      "lon": 39.719698,
      "name": "Ригла"
    },
    {
      "lat": 47.288357,
      "lon": 39.71563,
      "name": ""
    },
    {
      "lat": 47.301076,
      "lon": 39.72348,
      "name": ""
    },
    {
      "lat": 47.308637,
      "lon": 39.722473,
      "name": ""
    },
    {
      "lat": 47.243928,
      "lon": 39.765551,
      "name": "Нектар"
    },
    {
      "lat": 47.280769,
      "lon": 39.717533,
      "name": ""
    },
    {
      "lat": 47.260204,
      "lon": 39.717355,
      "name": "Аптечный пункт №18"
    },
    {
      "lat": 47.281463,
      "lon": 39.803996,
      "name": "Донская аптека"
    },
    {
      "lat": 47.228966,
      "lon": 39.696568,
      "name": ""
    },
    {
      "lat": 47.257147,
      "lon": 39.769283,
      "name": "МЕДТЕХНИКА"
    },
    {
      "lat": 47.200515,
      "lon": 39.613043,
      "name": "Нектар"
    },
    {
      "lat": 47.240501,
      "lon": 39.772163,
      "name": "Социальная аптека"
    },
    {
      "lat": 47.23046,
      "lon": 39.770353,
      "name": ""
    },
    {
      "lat": 47.234264,
      "lon": 39.701752,
      "name": ""
    },
    {
      "lat": 47.219677,
      "lon": 39.69956,
      "name": ""
    },
    {
      "lat": 47.220094,
      "lon": 39.7067,
      "name": ""
    },
    {
      "lat": 47.237023,
      "lon": 39.703861,
      "name": "Юг Фарма"
    },
    {
      "lat": 47.2187,
      "lon": 39.702585,
      "name": "Дежурная"
    },
    {
      "lat": 47.238846,
      "lon": 39.692157,
      "name": "Дешёвая аптека"
    },
    {
      "lat": 47.237642,
      "lon": 39.70088,
      "name": "Социальная аптека"
    },
    {
      "lat": 47.238746,
      "lon": 39.690168,
      "name": "Юг Фарма"
    },
    {
      "lat": 47.218632,
      "lon": 39.70863,
      "name": "Дешёвая аптека"
    },
    {
      "lat": 47.2915,
      "lon": 39.695569,
      "name": ""
    },
    {
      "lat": 47.207464,
      "lon": 39.630424,
      "name": ""
    },
    {
      "lat": 47.211719,
      "lon": 39.618657,
      "name": "Виват"
    },
    {
      "lat": 47.274186,
      "lon": 39.742052,
      "name": ""
    },
    {
      "lat": 47.192888,
      "lon": 39.639514,
      "name": ""
    },
    {
      "lat": 47.26793,
      "lon": 39.671683,
      "name": ""
    },
    {
      "lat": 47.227115,
      "lon": 39.751968,
      "name": "Юг Фарма"
    },
    {
      "lat": 47.223501,
      "lon": 39.724548,
      "name": "Социальная аптека"
    },
    {
      "lat": 47.253087,
      "lon": 39.713532,
      "name": "Хорошая аптека"
    },
    {
      "lat": 47.230889,
      "lon": 39.735087,
      "name": "Дом оптики"
    },
    {
      "lat": 47.225146,
      "lon": 39.70618,
      "name": "Социальная аптека"
    },
    {
      "lat": 47.217806,
      "lon": 39.719219,
      "name": ""
    },
    {
      "lat": 47.222286,
      "lon": 39.716992,
      "name": "Ригла"
    },
    {
      "lat": 47.224808,
      "lon": 39.718017,
      "name": ""
    },
    {
      "lat": 47.231042,
      "lon": 39.73582,
      "name": "Медмагазин"
    },
    {
      "lat": 47.230915,
      "lon": 39.735252,
      "name": "Социальная аптека"
    },
    {
      "lat": 47.22996,
      "lon": 39.734608,
      "name": "Дешёвая аптека"
    },
    {
      "lat": 47.225625,
      "lon": 39.734836,
      "name": "KRKA"
    },
    {
      "lat": 47.227543,
      "lon": 39.716084,
      "name": "Панацея-фарм"
    },
    {
      "lat": 47.222564,
      "lon": 39.718309,
      "name": "Социальная аптека"
    },
    {
      "lat": 47.287128,
      "lon": 39.75802,
      "name": "Социальная аптека"
    },
    {
      "lat": 47.220419,
      "lon": 39.713434,
      "name": "Дешёвая аптека"
    },
    {
      "lat": 47.273648,
      "lon": 39.715239,
      "name": ""
    },
    {
      "lat": 47.260253,
      "lon": 39.717376,
      "name": "аптека"
    },
    {
      "lat": 47.2876,
      "lon": 39.757761,
      "name": ""
    },
    {
      "lat": 47.250431,
      "lon": 39.688113,
      "name": ""
    },
    {
      "lat": 47.252177,
      "lon": 39.710858,
      "name": "Радуга"
    },
    {
      "lat": 47.285623,
      "lon": 39.704834,
      "name": ""
    },
    {
      "lat": 47.219926,
      "lon": 39.719372,
      "name": "Дешевая аптека"
    },
    {
      "lat": 47.219821,
      "lon": 39.722127,
      "name": ""
    },
    {
      "lat": 47.233303,
      "lon": 39.764725,
      "name": ""
    },
    {
      "lat": 47.286845,
      "lon": 39.763194,
      "name": ""
    },
    {
      "lat": 47.225174,
      "lon": 39.698942,
      "name": ""
    },
    {
      "lat": 47.238873,
      "lon": 39.758371,
      "name": "Аптеки Дона"
    },
    {
      "lat": 47.248805,
      "lon": 39.729945,
      "name": "Социальная аптека"
    },
    {
      "lat": 47.24904,
      "lon": 39.724886,
      "name": ""
    },
    {
      "lat": 47.248996,
      "lon": 39.726149,
      "name": "Аптека низких цен"
    },
    {
      "lat": 47.285532,
      "lon": 39.624353,
      "name": ""
    },
    {
      "lat": 47.220425,
      "lon": 39.713429,
      "name": "Дешёвая аптека"
    },
    {
      "lat": 47.220871,
      "lon": 39.713229,
      "name": "Юг Фарма"
    },
    {
      "lat": 47.229296,
      "lon": 39.735553,
      "name": "ЮгФарма"
    },
    {
      "lat": 47.230926,
      "lon": 39.74069,
      "name": "МедТехника"
    },
    {
      "lat": 47.230608,
      "lon": 39.739257,
      "name": "Аптека"
    },
    {
      "lat": 47.232411,
      "lon": 39.739751,
      "name": ""
    },
    {
      "lat": 47.224533,
      "lon": 39.72776,
      "name": "Аптека \"Нектар\""
    },
    {
      "lat": 47.231526,
      "lon": 39.728235,
      "name": ""
    },
    {
      "lat": 47.225268,
      "lon": 39.750952,
      "name": "Социальная аптека"
    },
    {
      "lat": 47.2533,
      "lon": 39.79476,
      "name": "Аптека Юг-фарма"
    },
    {
      "lat": 47.223698,
      "lon": 39.730774,
      "name": "Био-лекарь"
    },
    {
      "lat": 47.290824,
      "lon": 39.694341,
      "name": "ЮгФарма"
    },
    {
      "lat": 47.207,
      "lon": 39.648327,
      "name": ""
    },
    {
      "lat": 47.26288,
      "lon": 39.657959,
      "name": ""
    },
    {
      "lat": 47.262029,
      "lon": 39.654703,
      "name": "Еаптека"
    },
    {
      "lat": 47.26304,
      "lon": 39.659036,
      "name": "Юг Фарма"
    },
    {
      "lat": 47.262416,
      "lon": 39.656252,
      "name": ""
    },
    {
      "lat": 47.263254,
      "lon": 39.66115,
      "name": ""
    },
    {
      "lat": 47.211805,
      "lon": 39.644601,
      "name": "Дежурная аптека"
    },
    {
      "lat": 47.25705,
      "lon": 39.646245,
      "name": ""
    },
    {
      "lat": 47.224629,
      "lon": 39.626342,
      "name": ""
    },
    {
      "lat": 47.202856,
      "lon": 39.616043,
      "name": "Полина"
    },
    {
      "lat": 47.2196,
      "lon": 39.710722,
      "name": ""
    },
    {
      "lat": 47.286669,
      "lon": 39.762195,
      "name": "ЮжФарма"
    },
    {
      "lat": 47.212669,
      "lon": 39.624345,
      "name": "ЮГ ФАРМА"
    },
    {
      "lat": 47.21109,
      "lon": 39.623809,
      "name": "Зелёная аптека"
    },
    {
      "lat": 47.244087,
      "lon": 39.669099,
      "name": "Аптека №16"
    },
    {
      "lat": 47.253927,
      "lon": 39.768695,
      "name": "Дешевая аптека"
    },
    {
      "lat": 47.254171,
      "lon": 39.767672,
      "name": "Юг Фарма"
    },
    {
      "lat": 47.229779,
      "lon": 39.62153,
      "name": ""
    },
    {
      "lat": 47.228429,
      "lon": 39.751782,
      "name": "Дешёвая аптека"
    },
    {
      "lat": 47.215772,
      "lon": 39.619713,
      "name": "Панафарм"
    },
    {
      "lat": 47.215473,
      "lon": 39.620167,
      "name": "Панацея"
    },
    {
      "lat": 47.201101,
      "lon": 39.651427,
      "name": "Орион"
    },
    {
      "lat": 47.197459,
      "lon": 39.6262,
      "name": ""
    },
    {
      "lat": 47.235705,
      "lon": 39.805771,
      "name": "Социальная аптека"
    },
    {
      "lat": 47.231359,
      "lon": 39.714487,
      "name": "Аптека Ригла"
    },
    {
      "lat": 47.206714,
      "lon": 39.623634,
      "name": "Семейная аптека"
    },
    {
      "lat": 47.205794,
      "lon": 39.62172,
      "name": ""
    },
    {
      "lat": 47.214435,
      "lon": 39.662891,
      "name": "Донская аптека"
    },
    {
      "lat": 47.231732,
      "lon": 39.615482,
      "name": "ПАНА-Фарм"
    },
    {
      "lat": 47.22459,
      "lon": 39.625173,
      "name": "Медтехника"
    },
    {
      "lat": 47.224655,
      "lon": 39.625204,
      "name": "Аптечный склад"
    },
    {
      "lat": 47.240581,
      "lon": 39.750799,
      "name": "Будь здоров!"
    },
    {
      "lat": 47.238835,
      "lon": 39.753169,
      "name": ""
    },
    {
      "lat": 47.274863,
      "lon": 39.740624,
      "name": "Аптека"
    },
    {
      "lat": 47.275483,
      "lon": 39.749239,
      "name": "Аптека"
    },
    {
      "lat": 47.275415,
      "lon": 39.749493,
      "name": "Аптека"
    },
    {
      "lat": 47.229776,
      "lon": 39.703665,
      "name": "Радуга"
    },
    {
      "lat": 47.229515,
      "lon": 39.720827,
      "name": ""
    },
    {
      "lat": 47.211694,
      "lon": 39.673569,
      "name": "Аптека №54"
    },
    {
      "lat": 47.211205,
      "lon": 39.673328,
      "name": "Аптека Ригла"
    },
    {
      "lat": 47.221466,
      "lon": 39.685408,
      "name": "Лендворецкая аптека"
    },
    {
      "lat": 47.222888,
      "lon": 39.671317,
      "name": "Здоровье"
    },
    {
      "lat": 47.231819,
      "lon": 39.59271,
      "name": "Магнит Аптека"
    },
    {
      "lat": 47.226952,
      "lon": 39.598086,
      "name": "Аптека Пчёлка"
    },
    {
      "lat": 47.236503,
      "lon": 39.592954,
      "name": "Магнит Аптека"
    },
    {
      "lat": 47.296132,
      "lon": 39.715183,
      "name": "Вита Экспресс"
    },
    {
      "lat": 47.217823,
      "lon": 39.712478,
      "name": "Вита Экспресс"
    },
    {
      "lat": 47.212514,
      "lon": 39.61755,
      "name": "Вита Экспресс"
    },
    {
      "lat": 47.218001,
      "lon": 39.714839,
      "name": "Вита Экспресс"
    },
    {
      "lat": 47.263062,
      "lon": 39.659478,
      "name": "Вита Экспресс"
    },
    {
      "lat": 47.229824,
      "lon": 39.71504,
      "name": "Вита Центральная"
    },
    {
      "lat": 47.254565,
      "lon": 39.765197,
      "name": "Вита Экспресс"
    },
    {
      "lat": 47.290903,
      "lon": 39.694242,
      "name": "Вита Экспресс"
    },
    {
      "lat": 47.281788,
      "lon": 39.71563,
      "name": "Вита Экспресс"
    },
    {
      "lat": 47.206791,
      "lon": 39.629949,
      "name": "Вита Экспресс"
    },
    {
      "lat": 47.260248,
      "lon": 39.691195,
      "name": "Вита Экспресс"
    },
    {
      "lat": 47.261158,
      "lon": 39.652274,
      "name": "Вита Экспресс"
    },
    {
      "lat": 47.285075,
      "lon": 39.705421,
      "name": "Вита Экспресс"
    },
    {
      "lat": 47.28259,
      "lon": 39.756491,
      "name": "Вита Экспресс"
    },
    {
      "lat": 47.249931,
      "lon": 39.708672,
      "name": "Вита Экспресс"
    },
    {
      "lat": 47.210859,
      "lon": 39.668756,
      "name": "Вита Экспресс"
    },
    {
      "lat": 47.229619,
      "lon": 39.70922,
      "name": "Ваша аптека низких цен"
    },
    {
      "lat": 47.275486,
      "lon": 39.749067,
      "name": "Вита Экспресс"
    },
    {
      "lat": 47.200268,
      "lon": 39.652434,
      "name": "Еаптека"
    },
    {
      "lat": 47.19523,
      "lon": 39.625108,
      "name": "Надежда-Фарм"
    },
    {
      "lat": 47.251443,
      "lon": 39.658657,
      "name": ""
    },
    {
      "lat": 47.281127,
      "lon": 39.702506,
      "name": "Вита Экспресс"
    },
    {
      "lat": 47.216562,
      "lon": 39.708863,
      "name": "Лаки Фарма"
    },
    {
      "lat": 47.298787,
      "lon": 39.804269,
      "name": "Лаки Фарма"
    },
    {
      "lat": 47.303991,
      "lon": 39.783924,
      "name": "Лаки Фарма"
    },
    {
      "lat": 47.199883,
      "lon": 39.627852,
      "name": "Лаки Фарма"
    },
    {
      "lat": 47.240681,
      "lon": 39.777162,
      "name": "Лаки Фарма"
    },
    {
      "lat": 47.239813,
      "lon": 39.682405,
      "name": "Лаки Фарма"
    },
    {
      "lat": 47.28045,
      "lon": 39.802544,
      "name": "Лаки Фарма"
    },
    {
      "lat": 47.252528,
      "lon": 39.76483,
      "name": "Лаки Фарма"
    },
    {
      "lat": 47.285092,
      "lon": 39.764435,
      "name": "Лаки Фарма"
    },
    {
      "lat": 47.298785,
      "lon": 39.770331,
      "name": "Лаки Фарма"
    },
    {
      "lat": 47.320383,
      "lon": 39.687322,
      "name": "Лаки Фарма"
    },
    {
      "lat": 47.229975,
      "lon": 39.796539,
      "name": "Вита Экспресс"
    },
    {
      "lat": 47.2154,
      "lon": 39.618271,
      "name": "Вита Экспресс"
    },
    {
      "lat": 47.215103,
      "lon": 39.645949,
      "name": "Вита Экспресс"
    },
    {
      "lat": 47.22494,
      "lon": 39.632001,
      "name": "Вита Экспресс"
    },
    {
      "lat": 47.225274,
      "lon": 39.717204,
      "name": "Еаптека"
    },
    {
      "lat": 47.240771,
      "lon": 39.751499,
      "name": "Алоэ"
    },
    {
      "lat": 47.236227,
      "lon": 39.597538,
      "name": "Алоэ"
    },
    {
      "lat": 47.230375,
      "lon": 39.700942,
      "name": "Вита Экспресс"
    },
    {
      "lat": 47.237586,
      "lon": 39.702144,
      "name": "Вита Экспресс"
    },
    {
      "lat": 47.265177,
      "lon": 39.724111,
      "name": "Лаки Фарма"
    },
    {
      "lat": 47.274445,
      "lon": 39.740942,
      "name": "Лаки Фарма"
    },
    {
      "lat": 47.212441,
      "lon": 39.615667,
      "name": "Еаптека"
    },
    {
      "lat": 47.228558,
      "lon": 39.698506,
      "name": "Апрель аптека"
    },
    {
      "lat": 47.224946,
      "lon": 39.617847,
      "name": ""
    },
    {
      "lat": 47.278526,
      "lon": 39.750667,
      "name": "Лаки Фарма"
    },
    {
      "lat": 47.317388,
      "lon": 39.674678,
      "name": "Лаки Фарма"
    },
    {
      "lat": 47.225926,
      "lon": 39.774652,
      "name": "Лаки Фарма"
    },
    {
      "lat": 47.305677,
      "lon": 39.676405,
      "name": "Лаки Фарма"
    },
    {
      "lat": 47.267302,
      "lon": 39.669823,
      "name": "Лаки Фарма"
    },
    {
      "lat": 47.249513,
      "lon": 39.723232,
      "name": "Вита Экспресс"
    },
    {
      "lat": 47.249316,
      "lon": 39.729696,
      "name": "Вита Экспресс"
    },
    {
      "lat": 47.289158,
      "lon": 39.703447,
      "name": "Вита Экспресс"
    },
    {
      "lat": 47.222502,
      "lon": 39.706913,
      "name": "Вита Экспресс"
    },
    {
      "lat": 47.283148,
      "lon": 39.711602,
      "name": "Вита Центральная"
    },
    {
      "lat": 47.210748,
      "lon": 39.686231,
      "name": "Лаки Фарма"
    },
    {
      "lat": 47.324017,
      "lon": 39.692466,
      "name": "Лаки Фарма"
    },
    {
      "lat": 47.243268,
      "lon": 39.807206,
      "name": "Лаки Фарма"
    },
    {
      "lat": 47.25741,
      "lon": 39.785475,
      "name": "Лаки Фарма"
    },
    {
      "lat": 47.222193,
      "lon": 39.644344,
      "name": "Аптека"
    },
    {
      "lat": 47.237998,
      "lon": 39.63094,
      "name": ""
    },
    {
      "lat": 47.21604,
      "lon": 39.680603,
      "name": "Надежда Фарм"
    },
    {
      "lat": 47.225991,
      "lon": 39.775362,
      "name": "Вита Экспресс"
    },
    {
      "lat": 47.201088,
      "lon": 39.650508,
      "name": "Вита Экспресс"
    },
    {
      "lat": 47.239236,
      "lon": 39.799356,
      "name": "Вита Экспресс"
    },
    {
      "lat": 47.193784,
      "lon": 39.624148,
      "name": "Вита Экспресс"
    },
    {
      "lat": 47.219626,
      "lon": 39.720173,
      "name": "Вита Экспресс"
    },
    {
      "lat": 47.249636,
      "lon": 39.69816,
      "name": "Вита Экспресс"
    },
    {
      "lat": 47.226423,
      "lon": 39.69481,
      "name": "Вита Экспресс"
    },
    {
      "lat": 47.320687,
      "lon": 39.689753,
      "name": "Лаки Фарма"
    },
    {
      "lat": 47.2382,
      "lon": 39.697513,
      "name": "Вита Экспресс"
    },
    {
      "lat": 47.221528,
      "lon": 39.698991,
      "name": "Советская аптека"
    },
    {
      "lat": 47.335597,
      "lon": 39.737621,
      "name": "Апрель"
    },
    {
      "lat": 47.259285,
      "lon": 39.718706,
      "name": "Ригла"
    },
    {
      "lat": 47.260329,
      "lon": 39.650955,
      "name": ""
    }
  ],
  "cafes": [
    {
      "lat": 47.207939,
      "lon": 39.61877,
      "name": "Золотой Колос"
    },
    {
      "lat": 47.25901,
      "lon": 39.719483,
      "name": ""
    },
    {
      "lat": 47.234017,
      "lon": 39.713347,
      "name": ""
    },
    {
      "lat": 47.233567,
      "lon": 39.71354,
      "name": ""
    },
    {
      "lat": 47.207281,
      "lon": 39.617568,
      "name": "Тройка"
    },
    {
      "lat": 47.260638,
      "lon": 39.651052,
      "name": "Магнит"
    },
    {
      "lat": 47.219974,
      "lon": 39.720031,
      "name": "Вкуснолюбов"
    },
    {
      "lat": 47.259492,
      "lon": 39.626113,
      "name": ""
    },
    {
      "lat": 47.210432,
      "lon": 39.670369,
      "name": "Кайрос"
    },
    {
      "lat": 47.212198,
      "lon": 39.665635,
      "name": ""
    },
    {
      "lat": 47.202052,
      "lon": 39.66898,
      "name": ""
    },
    {
      "lat": 47.201965,
      "lon": 39.668508,
      "name": ""
    },
    {
      "lat": 47.223164,
      "lon": 39.718645,
      "name": "Пить Кофе"
    },
    {
      "lat": 47.232067,
      "lon": 39.761157,
      "name": "Золотой Колос"
    },
    {
      "lat": 47.221296,
      "lon": 39.70676,
      "name": "Питькофе 24 часа"
    },
    {
      "lat": 47.220441,
      "lon": 39.708204,
      "name": "Золотой колос"
    },
    {
      "lat": 47.253676,
      "lon": 39.766752,
      "name": "кофе-чай;Одежда - Обувь"
    },
    {
      "lat": 47.256333,
      "lon": 39.765519,
      "name": ""
    },
    {
      "lat": 47.218949,
      "lon": 39.613903,
      "name": "У борца"
    },
    {
      "lat": 47.22054,
      "lon": 39.614084,
      "name": "Колхоз"
    },
    {
      "lat": 47.231455,
      "lon": 39.762189,
      "name": ""
    },
    {
      "lat": 47.234906,
      "lon": 39.704362,
      "name": "Кардиган"
    },
    {
      "lat": 47.225913,
      "lon": 39.720484,
      "name": "Свободное пространство Циферблат"
    },
    {
      "lat": 47.221487,
      "lon": 39.706582,
      "name": "Сицилия"
    },
    {
      "lat": 47.214855,
      "lon": 39.616779,
      "name": "Золотой Колос"
    },
    {
      "lat": 47.223399,
      "lon": 39.716874,
      "name": "Арбуз"
    },
    {
      "lat": 47.220588,
      "lon": 39.710874,
      "name": "Антикафе \"Улей\""
    },
    {
      "lat": 47.301375,
      "lon": 39.719837,
      "name": "Три самурая"
    },
    {
      "lat": 47.226909,
      "lon": 39.743028,
      "name": "Пить Кофе"
    },
    {
      "lat": 47.231691,
      "lon": 39.702781,
      "name": "Ложка - Поварёшка"
    },
    {
      "lat": 47.223906,
      "lon": 39.727449,
      "name": "Джем"
    },
    {
      "lat": 47.235392,
      "lon": 39.73794,
      "name": "Гурия"
    },
    {
      "lat": 47.280262,
      "lon": 39.768911,
      "name": ""
    },
    {
      "lat": 47.215239,
      "lon": 39.634814,
      "name": "Еда всегда"
    },
    {
      "lat": 47.220973,
      "lon": 39.706964,
      "name": "Помидор"
    },
    {
      "lat": 47.252633,
      "lon": 39.764803,
      "name": "Рис"
    },
    {
      "lat": 47.217439,
      "lon": 39.70563,
      "name": "Good Morning Coffee"
    },
    {
      "lat": 47.253967,
      "lon": 39.6954,
      "name": "Берлин"
    },
    {
      "lat": 47.251387,
      "lon": 39.695984,
      "name": "Шашлычная 385"
    },
    {
      "lat": 47.218858,
      "lon": 39.710699,
      "name": "Осетинские пироги"
    },
    {
      "lat": 47.227742,
      "lon": 39.703693,
      "name": "Тайна"
    },
    {
      "lat": 47.230698,
      "lon": 39.73708,
      "name": "Антикафе \"Тень\""
    },
    {
      "lat": 47.22307,
      "lon": 39.709979,
      "name": "Ёлка"
    },
    {
      "lat": 47.239177,
      "lon": 39.697881,
      "name": "Full House"
    },
    {
      "lat": 47.257143,
      "lon": 39.715183,
      "name": "Пельмешка"
    },
    {
      "lat": 47.217313,
      "lon": 39.696614,
      "name": "Мечта"
    },
    {
      "lat": 47.231603,
      "lon": 39.757549,
      "name": "Марьяж"
    },
    {
      "lat": 47.23787,
      "lon": 39.616755,
      "name": "Магнолия"
    },
    {
      "lat": 47.209317,
      "lon": 39.690995,
      "name": "Самовар"
    },
    {
      "lat": 47.273724,
      "lon": 39.716784,
      "name": ""
    },
    {
      "lat": 47.220688,
      "lon": 39.707104,
      "name": "Luka Pizza"
    },
    {
      "lat": 47.21977,
      "lon": 39.70518,
      "name": "Старые друзья"
    },
    {
      "lat": 47.222693,
      "lon": 39.701996,
      "name": "Coffee Man"
    },
    {
      "lat": 47.21894,
      "lon": 39.719277,
      "name": "Красный мак"
    },
    {
      "lat": 47.219774,
      "lon": 39.710782,
      "name": "Питькофе"
    },
    {
      "lat": 47.217984,
      "lon": 39.720295,
      "name": "Флорида"
    },
    {
      "lat": 47.221562,
      "lon": 39.715525,
      "name": "Сметана"
    },
    {
      "lat": 47.220071,
      "lon": 39.722872,
      "name": "Белая Вежа"
    },
    {
      "lat": 47.223525,
      "lon": 39.714925,
      "name": "Генацвали"
    },
    {
      "lat": 47.227914,
      "lon": 39.729051,
      "name": "Суши wok"
    },
    {
      "lat": 47.22564,
      "lon": 39.7349,
      "name": "cafeDOM"
    },
    {
      "lat": 47.224336,
      "lon": 39.734736,
      "name": "X'трим кафе"
    },
    {
      "lat": 47.22506,
      "lon": 39.728158,
      "name": "Мама Фуку"
    },
    {
      "lat": 47.227173,
      "lon": 39.725985,
      "name": "SfedU@cafe"
    },
    {
      "lat": 47.221795,
      "lon": 39.712787,
      "name": "Столовая"
    },
    {
      "lat": 47.222893,
      "lon": 39.71266,
      "name": "Вкуснолюбов"
    },
    {
      "lat": 47.249263,
      "lon": 39.71592,
      "name": "Убежище Мечтателя"
    },
    {
      "lat": 47.219291,
      "lon": 39.714218,
      "name": "Территория еды"
    },
    {
      "lat": 47.223149,
      "lon": 39.722919,
      "name": "Burger&Smoke"
    },
    {
      "lat": 47.226162,
      "lon": 39.730462,
      "name": "Дыра в стене"
    },
    {
      "lat": 47.227412,
      "lon": 39.72729,
      "name": "8 Зерен"
    },
    {
      "lat": 47.208925,
      "lon": 39.632199,
      "name": "Luka Pizza"
    },
    {
      "lat": 47.2245,
      "lon": 39.734733,
      "name": "Багет-Паштет"
    },
    {
      "lat": 47.223833,
      "lon": 39.719102,
      "name": "Бибоп Бургер"
    },
    {
      "lat": 47.224722,
      "lon": 39.734774,
      "name": "Шаурма маркет"
    },
    {
      "lat": 47.228986,
      "lon": 39.74596,
      "name": ""
    },
    {
      "lat": 47.236255,
      "lon": 39.710906,
      "name": "Русь"
    },
    {
      "lat": 47.232264,
      "lon": 39.744481,
      "name": "Столовая Аппетитово"
    },
    {
      "lat": 47.233297,
      "lon": 39.747225,
      "name": "Столовая"
    },
    {
      "lat": 47.2287,
      "lon": 39.753553,
      "name": "Штолле"
    },
    {
      "lat": 47.249006,
      "lon": 39.726004,
      "name": "Сакура экспресс"
    },
    {
      "lat": 47.228304,
      "lon": 39.73095,
      "name": "итальянский квартал"
    },
    {
      "lat": 47.227082,
      "lon": 39.722707,
      "name": "Итальянский квартал"
    },
    {
      "lat": 47.219862,
      "lon": 39.713965,
      "name": "Вкуснолюбов"
    },
    {
      "lat": 47.228888,
      "lon": 39.730921,
      "name": "Setter's"
    },
    {
      "lat": 47.237,
      "lon": 39.739708,
      "name": "Столовая"
    },
    {
      "lat": 47.2367,
      "lon": 39.741846,
      "name": "Чёрная кошка"
    },
    {
      "lat": 47.218379,
      "lon": 39.700639,
      "name": "Лазария"
    },
    {
      "lat": 47.232433,
      "lon": 39.732475,
      "name": "Сытный дворик"
    },
    {
      "lat": 47.234108,
      "lon": 39.703601,
      "name": "Пить кофе"
    },
    {
      "lat": 47.228348,
      "lon": 39.749817,
      "name": "CoffeeLab"
    },
    {
      "lat": 47.224767,
      "lon": 39.714726,
      "name": "CoffeeMan"
    },
    {
      "lat": 47.24138,
      "lon": 39.757592,
      "name": "Встреча"
    },
    {
      "lat": 47.241366,
      "lon": 39.75752,
      "name": "Пить кофе"
    },
    {
      "lat": 47.247877,
      "lon": 39.762085,
      "name": "Кафе \"Энигма\""
    },
    {
      "lat": 47.217588,
      "lon": 39.72198,
      "name": "Ложка-Поварешка"
    },
    {
      "lat": 47.224296,
      "lon": 39.721515,
      "name": "Camorra pizza e birra"
    },
    {
      "lat": 47.228828,
      "lon": 39.707173,
      "name": "Pulse COFFEE"
    },
    {
      "lat": 47.201106,
      "lon": 39.663021,
      "name": ""
    },
    {
      "lat": 47.254194,
      "lon": 39.715198,
      "name": "EL Команданте"
    },
    {
      "lat": 47.218875,
      "lon": 39.720566,
      "name": "Столовая"
    },
    {
      "lat": 47.218023,
      "lon": 39.698741,
      "name": "Чайнатаун"
    },
    {
      "lat": 47.226446,
      "lon": 39.70637,
      "name": "Куба либре"
    },
    {
      "lat": 47.201804,
      "lon": 39.649371,
      "name": "Джусто Pizza"
    },
    {
      "lat": 47.241552,
      "lon": 39.763404,
      "name": ""
    },
    {
      "lat": 47.281066,
      "lon": 39.70208,
      "name": "Кондитерская Натальи Соловьевой"
    },
    {
      "lat": 47.253455,
      "lon": 39.770133,
      "name": "Bread Пит"
    },
    {
      "lat": 47.29451,
      "lon": 39.658582,
      "name": "Вояж"
    },
    {
      "lat": 47.289667,
      "lon": 39.704282,
      "name": "Золотой колос"
    },
    {
      "lat": 47.212688,
      "lon": 39.705256,
      "name": "Территория еды"
    },
    {
      "lat": 47.224013,
      "lon": 39.723648,
      "name": "Дружба"
    },
    {
      "lat": 47.219631,
      "lon": 39.704582,
      "name": "Еда всегда"
    },
    {
      "lat": 47.300745,
      "lon": 39.655127,
      "name": "Есть вкусно"
    },
    {
      "lat": 47.22702,
      "lon": 39.660393,
      "name": "Мзия"
    },
    {
      "lat": 47.221261,
      "lon": 39.722411,
      "name": "Обедово"
    },
    {
      "lat": 47.22779,
      "lon": 39.729106,
      "name": "Surfing never alone"
    },
    {
      "lat": 47.249391,
      "lon": 39.710661,
      "name": "Пить кофе"
    },
    {
      "lat": 47.24932,
      "lon": 39.796075,
      "name": "Кафе \"Орбита\""
    },
    {
      "lat": 47.218942,
      "lon": 39.71116,
      "name": "Питькофе"
    },
    {
      "lat": 47.223544,
      "lon": 39.714858,
      "name": "Генацвали"
    },
    {
      "lat": 47.223965,
      "lon": 39.717844,
      "name": "Лучшая Шаурма в Ростове"
    },
    {
      "lat": 47.223524,
      "lon": 39.723014,
      "name": "Surf Coffee"
    },
    {
      "lat": 47.220303,
      "lon": 39.710804,
      "name": "Surf Coffee"
    },
    {
      "lat": 47.283152,
      "lon": 39.710568,
      "name": "Пить кофе"
    },
    {
      "lat": 47.283169,
      "lon": 39.710843,
      "name": "Мама Donna"
    },
    {
      "lat": 47.222897,
      "lon": 39.711253,
      "name": ""
    },
    {
      "lat": 47.298302,
      "lon": 39.657618,
      "name": "Столовая"
    },
    {
      "lat": 47.226603,
      "lon": 39.73639,
      "name": "Фреш-Бар ШПИНАТ"
    },
    {
      "lat": 47.222042,
      "lon": 39.70711,
      "name": "40 Франков"
    },
    {
      "lat": 47.234677,
      "lon": 39.704401,
      "name": "Обедово"
    },
    {
      "lat": 47.223449,
      "lon": 39.71866,
      "name": "Take and wake"
    },
    {
      "lat": 47.226102,
      "lon": 39.717364,
      "name": "Кофемолка"
    },
    {
      "lat": 47.226834,
      "lon": 39.721375,
      "name": "4Wakeup"
    },
    {
      "lat": 47.218742,
      "lon": 39.717061,
      "name": "Бульвар"
    },
    {
      "lat": 47.226417,
      "lon": 39.719552,
      "name": "Белый слон"
    },
    {
      "lat": 47.247583,
      "lon": 39.711869,
      "name": "Coffee Like"
    },
    {
      "lat": 47.221242,
      "lon": 39.714153,
      "name": "Coffee Like"
    },
    {
      "lat": 47.23366,
      "lon": 39.763449,
      "name": "Гурман"
    },
    {
      "lat": 47.225327,
      "lon": 39.617531,
      "name": "Домашняя кухня"
    },
    {
      "lat": 47.201847,
      "lon": 39.649556,
      "name": "Тоси Боси"
    },
    {
      "lat": 47.228866,
      "lon": 39.603892,
      "name": "Coffee Like"
    },
    {
      "lat": 47.22859,
      "lon": 39.714903,
      "name": "Пельмень"
    },
    {
      "lat": 47.23263,
      "lon": 39.729408,
      "name": "Кафе-мороженое Амаркорд"
    },
    {
      "lat": 47.224292,
      "lon": 39.721281,
      "name": "колючка"
    },
    {
      "lat": 47.203578,
      "lon": 39.72111,
      "name": "Cinnabon"
    },
    {
      "lat": 47.259391,
      "lon": 39.721769,
      "name": "Cinnabon"
    },
    {
      "lat": 47.215102,
      "lon": 39.634849,
      "name": "Кулинария"
    },
    {
      "lat": 47.215382,
      "lon": 39.634694,
      "name": "Венеция"
    },
    {
      "lat": 47.227323,
      "lon": 39.707461,
      "name": "Гурман Булкинъ"
    },
    {
      "lat": 47.225228,
      "lon": 39.714044,
      "name": "Гурман Булкинъ"
    },
    {
      "lat": 47.279169,
      "lon": 39.749334,
      "name": "Фарфор"
    },
    {
      "lat": 47.215706,
      "lon": 39.71806,
      "name": "One Way coffee & coworking"
    },
    {
      "lat": 47.217318,
      "lon": 39.709603,
      "name": "Столовая"
    },
    {
      "lat": 47.222649,
      "lon": 39.71714,
      "name": "Дом Бородача"
    },
    {
      "lat": 47.220548,
      "lon": 39.692731,
      "name": "Еда всегда"
    },
    {
      "lat": 47.226372,
      "lon": 39.719314,
      "name": "Кекс"
    },
    {
      "lat": 47.220565,
      "lon": 39.710746,
      "name": "Осака"
    },
    {
      "lat": 47.23572,
      "lon": 39.755181,
      "name": "Столовая"
    },
    {
      "lat": 47.227865,
      "lon": 39.629996,
      "name": "Сицилия"
    },
    {
      "lat": 47.232021,
      "lon": 39.74719,
      "name": "Морпорт"
    },
    {
      "lat": 47.220241,
      "lon": 39.71991,
      "name": "Столовая \"Застолье\""
    },
    {
      "lat": 47.227543,
      "lon": 39.727289,
      "name": "Бар здоровых привычек"
    },
    {
      "lat": 47.226564,
      "lon": 39.74308,
      "name": "Сицилия"
    },
    {
      "lat": 47.225476,
      "lon": 39.751202,
      "name": "Мерси Дар"
    },
    {
      "lat": 47.230304,
      "lon": 39.610203,
      "name": "Cinnabon"
    },
    {
      "lat": 47.223758,
      "lon": 39.630892,
      "name": "Coffee Like"
    },
    {
      "lat": 47.227475,
      "lon": 39.705868,
      "name": "Ирис"
    },
    {
      "lat": 47.228207,
      "lon": 39.689996,
      "name": "Вкусный шашлык"
    },
    {
      "lat": 47.294697,
      "lon": 39.704441,
      "name": "Nahodu"
    },
    {
      "lat": 47.227043,
      "lon": 39.695285,
      "name": "Столовая Брусника"
    },
    {
      "lat": 47.237114,
      "lon": 39.703768,
      "name": "Черная кошка"
    },
    {
      "lat": 47.27402,
      "lon": 39.70784,
      "name": "Кофейня"
    },
    {
      "lat": 47.213401,
      "lon": 39.805068,
      "name": ""
    },
    {
      "lat": 47.225105,
      "lon": 39.705086,
      "name": "Surf Coffee"
    },
    {
      "lat": 47.225701,
      "lon": 39.718633,
      "name": "Surf Coffee"
    },
    {
      "lat": 47.227461,
      "lon": 39.713562,
      "name": "Frank by Баста"
    },
    {
      "lat": 47.208965,
      "lon": 39.631543,
      "name": "Сицилия"
    },
    {
      "lat": 47.320378,
      "lon": 39.689392,
      "name": "Сицилия"
    },
    {
      "lat": 47.249356,
      "lon": 39.710206,
      "name": "Сицилия"
    },
    {
      "lat": 47.241312,
      "lon": 39.757102,
      "name": "Сицилия"
    },
    {
      "lat": 47.225929,
      "lon": 39.774703,
      "name": "Сицилия"
    },
    {
      "lat": 47.287184,
      "lon": 39.7054,
      "name": "Сицилия"
    },
    {
      "lat": 47.227503,
      "lon": 39.727131,
      "name": "Сицилия"
    },
    {
      "lat": 47.288916,
      "lon": 39.71372,
      "name": "Сицилия"
    },
    {
      "lat": 47.262471,
      "lon": 39.719862,
      "name": "Сицилия"
    },
    {
      "lat": 47.233252,
      "lon": 39.701402,
      "name": "Surf Coffee"
    },
    {
      "lat": 47.213845,
      "lon": 39.714666,
      "name": "Surf Coffee"
    },
    {
      "lat": 47.218359,
      "lon": 39.714305,
      "name": "Назад в СССР"
    },
    {
      "lat": 47.227465,
      "lon": 39.709249,
      "name": "Мидийное место"
    },
    {
      "lat": 47.223825,
      "lon": 39.726514,
      "name": "Мидийное место"
    },
    {
      "lat": 47.226234,
      "lon": 39.615503,
      "name": ""
    },
    {
      "lat": 47.227031,
      "lon": 39.742755,
      "name": "Surf Coffee"
    },
    {
      "lat": 47.217797,
      "lon": 39.72171,
      "name": "Surf Coffee"
    },
    {
      "lat": 47.213999,
      "lon": 39.715716,
      "name": "Мидийное место"
    },
    {
      "lat": 47.208076,
      "lon": 39.623876,
      "name": "Сказка"
    },
    {
      "lat": 47.241067,
      "lon": 39.736417,
      "name": "Золотой колос"
    },
    {
      "lat": 47.217614,
      "lon": 39.724063,
      "name": "Балканы"
    },
    {
      "lat": 47.287421,
      "lon": 39.708009,
      "name": "Осака"
    },
    {
      "lat": 47.257544,
      "lon": 39.638589,
      "name": "Дирижабль"
    },
    {
      "lat": 47.21188,
      "lon": 39.623319,
      "name": "МангалCaffe"
    },
    {
      "lat": 47.216976,
      "lon": 39.634009,
      "name": ""
    },
    {
      "lat": 47.212206,
      "lon": 39.72739,
      "name": "Причал"
    },
    {
      "lat": 47.212091,
      "lon": 39.730057,
      "name": "Наири"
    },
    {
      "lat": 47.247823,
      "lon": 39.762762,
      "name": "Кафе Махаон"
    },
    {
      "lat": 47.244541,
      "lon": 39.763729,
      "name": ""
    },
    {
      "lat": 47.246661,
      "lon": 39.764045,
      "name": "ПАРК"
    },
    {
      "lat": 47.234189,
      "lon": 39.785236,
      "name": "Старый мост"
    },
    {
      "lat": 47.20176,
      "lon": 39.780563,
      "name": "Жемчужина"
    },
    {
      "lat": 47.209089,
      "lon": 39.808399,
      "name": "Тимоша"
    },
    {
      "lat": 47.225051,
      "lon": 39.703897,
      "name": "Мистер Икс"
    },
    {
      "lat": 47.297064,
      "lon": 39.7066,
      "name": "Кафе-кондитерская \"Золотой колос\""
    },
    {
      "lat": 47.211818,
      "lon": 39.66236,
      "name": "Шашлык Дона"
    },
    {
      "lat": 47.246519,
      "lon": 39.648852,
      "name": "Новая столовая"
    },
    {
      "lat": 47.226614,
      "lon": 39.619391,
      "name": "Дарьина роща"
    },
    {
      "lat": 47.285009,
      "lon": 39.624203,
      "name": "Двин"
    },
    {
      "lat": 47.249605,
      "lon": 39.764131,
      "name": "БРЕДА"
    },
    {
      "lat": 47.205606,
      "lon": 39.614232,
      "name": ""
    },
    {
      "lat": 47.223291,
      "lon": 39.724152,
      "name": "Вкуснолюбов"
    },
    {
      "lat": 47.208482,
      "lon": 39.62665,
      "name": ""
    },
    {
      "lat": 47.3322,
      "lon": 39.632698,
      "name": "Огонь-Обед"
    },
    {
      "lat": 47.203199,
      "lon": 39.730983,
      "name": ""
    }
  ],
  "restaurants": [
    {
      "lat": 47.218562,
      "lon": 39.733152,
      "name": "Пирс"
    },
    {
      "lat": 47.216006,
      "lon": 39.709068,
      "name": "Пивная Библиотека"
    },
    {
      "lat": 47.213073,
      "lon": 39.741099,
      "name": "Облико Морале"
    },
    {
      "lat": 47.219932,
      "lon": 39.718677,
      "name": "Бирхоф"
    },
    {
      "lat": 47.231582,
      "lon": 39.714385,
      "name": "Пить кофе"
    },
    {
      "lat": 47.211509,
      "lon": 39.75431,
      "name": "Старая Мельница"
    },
    {
      "lat": 47.210897,
      "lon": 39.752389,
      "name": "Станица Черкасская"
    },
    {
      "lat": 47.212918,
      "lon": 39.628532,
      "name": "Фрау Марта"
    },
    {
      "lat": 47.259391,
      "lon": 39.65041,
      "name": "Осака"
    },
    {
      "lat": 47.295709,
      "lon": 39.718778,
      "name": "Ресторан «Абажур»"
    },
    {
      "lat": 47.213398,
      "lon": 39.805953,
      "name": ""
    },
    {
      "lat": 47.232392,
      "lon": 39.701781,
      "name": "Paris"
    },
    {
      "lat": 47.222445,
      "lon": 39.712377,
      "name": "Cыроварня"
    },
    {
      "lat": 47.28389,
      "lon": 39.716801,
      "name": "Рис"
    },
    {
      "lat": 47.211497,
      "lon": 39.634535,
      "name": "ГлавПивТрест"
    },
    {
      "lat": 47.210988,
      "lon": 39.63457,
      "name": "Самовар"
    },
    {
      "lat": 47.232368,
      "lon": 39.714031,
      "name": "Рис"
    },
    {
      "lat": 47.23458,
      "lon": 39.722491,
      "name": "Гусь и противень"
    },
    {
      "lat": 47.187881,
      "lon": 39.587981,
      "name": "100-й пруд"
    },
    {
      "lat": 47.188245,
      "lon": 39.620426,
      "name": "Донская роща"
    },
    {
      "lat": 47.241347,
      "lon": 39.707079,
      "name": "Домашняя кухня"
    },
    {
      "lat": 47.249787,
      "lon": 39.696535,
      "name": "Рис"
    },
    {
      "lat": 47.225055,
      "lon": 39.730415,
      "name": "New York"
    },
    {
      "lat": 47.216785,
      "lon": 39.700825,
      "name": ""
    },
    {
      "lat": 47.224614,
      "lon": 39.625875,
      "name": "Соблазн"
    },
    {
      "lat": 47.24945,
      "lon": 39.704505,
      "name": "Столовая"
    },
    {
      "lat": 47.224111,
      "lon": 39.718331,
      "name": "Рис"
    },
    {
      "lat": 47.289471,
      "lon": 39.709219,
      "name": "Шале"
    },
    {
      "lat": 47.233267,
      "lon": 39.736257,
      "name": "Хлеб и сало"
    },
    {
      "lat": 47.258646,
      "lon": 39.718611,
      "name": "Рис"
    },
    {
      "lat": 47.204803,
      "lon": 39.765469,
      "name": "ТЕТ-А-ТЕТ"
    },
    {
      "lat": 47.205113,
      "lon": 39.764464,
      "name": "Охотничий клуб"
    },
    {
      "lat": 47.20453,
      "lon": 39.766259,
      "name": "Аверон"
    },
    {
      "lat": 47.234127,
      "lon": 39.701712,
      "name": "Хлеб и сало"
    },
    {
      "lat": 47.225124,
      "lon": 39.7159,
      "name": "Силла"
    },
    {
      "lat": 47.228583,
      "lon": 39.716671,
      "name": "Донская чаша"
    },
    {
      "lat": 47.227996,
      "lon": 39.716631,
      "name": "Осака"
    },
    {
      "lat": 47.260386,
      "lon": 39.721533,
      "name": "Ассорти"
    },
    {
      "lat": 47.248948,
      "lon": 39.75104,
      "name": "Кафе Анжелика"
    },
    {
      "lat": 47.292974,
      "lon": 39.689136,
      "name": ""
    },
    {
      "lat": 47.228614,
      "lon": 39.718758,
      "name": "Рис"
    },
    {
      "lat": 47.22549,
      "lon": 39.722971,
      "name": "Онегин Дача"
    },
    {
      "lat": 47.205943,
      "lon": 39.764288,
      "name": "Tennispark"
    },
    {
      "lat": 47.232761,
      "lon": 39.733972,
      "name": "РИС"
    },
    {
      "lat": 47.218183,
      "lon": 39.61384,
      "name": "Фруктовый сад"
    },
    {
      "lat": 47.226309,
      "lon": 39.704189,
      "name": "РИС"
    },
    {
      "lat": 47.205814,
      "lon": 39.763194,
      "name": "Шик и Дым"
    },
    {
      "lat": 47.203573,
      "lon": 39.768151,
      "name": "\"Ленкорань\" грузинская кухня"
    },
    {
      "lat": 47.196403,
      "lon": 39.770765,
      "name": "Голубое озеро"
    },
    {
      "lat": 47.201548,
      "lon": 39.788691,
      "name": "Казачий хутор"
    },
    {
      "lat": 47.210789,
      "lon": 39.632269,
      "name": "St. Tropez"
    },
    {
      "lat": 47.211015,
      "lon": 39.667014,
      "name": "РИС"
    },
    {
      "lat": 47.229838,
      "lon": 39.742562,
      "name": "Ялла"
    },
    {
      "lat": 47.243506,
      "lon": 39.764629,
      "name": "Тамада"
    },
    {
      "lat": 47.281765,
      "lon": 39.760209,
      "name": "ЯКИТОРИЯ"
    },
    {
      "lat": 47.226624,
      "lon": 39.74318,
      "name": "РИС"
    },
    {
      "lat": 47.206,
      "lon": 39.762694,
      "name": "Атаманская усадьба"
    },
    {
      "lat": 47.221687,
      "lon": 39.706696,
      "name": "ОСАКА"
    },
    {
      "lat": 47.226774,
      "lon": 39.713988,
      "name": "Публика"
    },
    {
      "lat": 47.203051,
      "lon": 39.772643,
      "name": "Орхидея"
    },
    {
      "lat": 47.296721,
      "lon": 39.721786,
      "name": "Амбар"
    },
    {
      "lat": 47.276277,
      "lon": 39.785854,
      "name": "Кокос"
    },
    {
      "lat": 47.232255,
      "lon": 39.702571,
      "name": "Якитория"
    },
    {
      "lat": 47.225003,
      "lon": 39.705205,
      "name": ""
    },
    {
      "lat": 47.251856,
      "lon": 39.697964,
      "name": "Бутлегер"
    },
    {
      "lat": 47.256853,
      "lon": 39.701861,
      "name": "АРГО"
    },
    {
      "lat": 47.227046,
      "lon": 39.714914,
      "name": "Ресторан грузинской кухни \"Кинза\""
    },
    {
      "lat": 47.224196,
      "lon": 39.630655,
      "name": "Силла"
    },
    {
      "lat": 47.230926,
      "lon": 39.614861,
      "name": "Рис"
    },
    {
      "lat": 47.227418,
      "lon": 39.724254,
      "name": "РИС"
    },
    {
      "lat": 47.229249,
      "lon": 39.75464,
      "name": "Arts House"
    },
    {
      "lat": 47.222311,
      "lon": 39.700357,
      "name": "Pinot Noir"
    },
    {
      "lat": 47.21393,
      "lon": 39.715065,
      "name": "Ассорти"
    },
    {
      "lat": 47.23266,
      "lon": 39.733462,
      "name": "Багдад"
    },
    {
      "lat": 47.214423,
      "lon": 39.716654,
      "name": "Schneider Weisse Brauhaus"
    },
    {
      "lat": 47.212998,
      "lon": 39.709058,
      "name": "Portland"
    },
    {
      "lat": 47.206148,
      "lon": 39.762188,
      "name": "Золотое руно"
    },
    {
      "lat": 47.227712,
      "lon": 39.712419,
      "name": "Макао"
    },
    {
      "lat": 47.21879,
      "lon": 39.715685,
      "name": "Ташкент"
    },
    {
      "lat": 47.222525,
      "lon": 39.71282,
      "name": "Osteria Italiana"
    },
    {
      "lat": 47.221225,
      "lon": 39.713816,
      "name": "Рис"
    },
    {
      "lat": 47.225949,
      "lon": 39.736391,
      "name": "Пироги Кучкова"
    },
    {
      "lat": 47.221066,
      "lon": 39.71583,
      "name": "Ростовская рюмочная"
    },
    {
      "lat": 47.212427,
      "lon": 39.618155,
      "name": "Якитория"
    },
    {
      "lat": 47.22452,
      "lon": 39.722563,
      "name": "Времена года"
    },
    {
      "lat": 47.214801,
      "lon": 39.718494,
      "name": "Фрау Мюллер"
    },
    {
      "lat": 47.222936,
      "lon": 39.70575,
      "name": "Пушкино"
    },
    {
      "lat": 47.238665,
      "lon": 39.699666,
      "name": "Luka Pizza"
    },
    {
      "lat": 47.22272,
      "lon": 39.695444,
      "name": "Zhivago"
    },
    {
      "lat": 47.229175,
      "lon": 39.72751,
      "name": "Алиса"
    },
    {
      "lat": 47.243723,
      "lon": 39.766472,
      "name": "Осака"
    },
    {
      "lat": 47.208649,
      "lon": 39.631704,
      "name": "Рис"
    },
    {
      "lat": 47.230497,
      "lon": 39.73874,
      "name": "Ташир"
    },
    {
      "lat": 47.25384,
      "lon": 39.766846,
      "name": "Антонио"
    },
    {
      "lat": 47.182047,
      "lon": 39.601084,
      "name": "Важная рыба"
    },
    {
      "lat": 47.20521,
      "lon": 39.633093,
      "name": "Дар"
    },
    {
      "lat": 47.236849,
      "lon": 39.74242,
      "name": "Сакура"
    },
    {
      "lat": 47.230672,
      "lon": 39.728361,
      "name": "Чайхана"
    },
    {
      "lat": 47.227607,
      "lon": 39.713504,
      "name": "Корова"
    },
    {
      "lat": 47.22776,
      "lon": 39.712807,
      "name": "ОшПош"
    },
    {
      "lat": 47.211933,
      "lon": 39.60354,
      "name": "Алиби"
    },
    {
      "lat": 47.219155,
      "lon": 39.711051,
      "name": "Штефан Бургер"
    },
    {
      "lat": 47.213787,
      "lon": 39.709821,
      "name": "Suli da guli"
    },
    {
      "lat": 47.227459,
      "lon": 39.694333,
      "name": "Сурнели (грузинская кухня)"
    },
    {
      "lat": 47.229514,
      "lon": 39.628765,
      "name": ""
    },
    {
      "lat": 47.191018,
      "lon": 39.801597,
      "name": "Ближняя дача"
    },
    {
      "lat": 47.223415,
      "lon": 39.72825,
      "name": "Чинар"
    },
    {
      "lat": 47.297283,
      "lon": 39.713397,
      "name": "Sushi Master"
    },
    {
      "lat": 47.228795,
      "lon": 39.714844,
      "name": "Sushi Master"
    },
    {
      "lat": 47.227652,
      "lon": 39.610956,
      "name": "Subway"
    },
    {
      "lat": 47.225424,
      "lon": 39.739069,
      "name": "Рыбный ресторан «Fish’ka»"
    },
    {
      "lat": 47.281852,
      "lon": 39.752471,
      "name": ""
    },
    {
      "lat": 47.218738,
      "lon": 39.71997,
      "name": "Охотник"
    },
    {
      "lat": 47.222457,
      "lon": 39.703499,
      "name": "Гаврош"
    },
    {
      "lat": 47.225387,
      "lon": 39.726714,
      "name": "Драго Стейк Хаус"
    },
    {
      "lat": 47.220899,
      "lon": 39.71401,
      "name": "Раки и Гады"
    },
    {
      "lat": 47.226467,
      "lon": 39.727567,
      "name": "Дядя Френк"
    },
    {
      "lat": 47.214435,
      "lon": 39.71839,
      "name": "Sapore Italiano"
    },
    {
      "lat": 47.217318,
      "lon": 39.723154,
      "name": "Эрти"
    },
    {
      "lat": 47.223744,
      "lon": 39.726032,
      "name": ""
    },
    {
      "lat": 47.23427,
      "lon": 39.70683,
      "name": "Лариса жарит"
    },
    {
      "lat": 47.2267,
      "lon": 39.7359,
      "name": "Amalfi"
    },
    {
      "lat": 47.22296,
      "lon": 39.705902,
      "name": "Боэми"
    },
    {
      "lat": 47.222567,
      "lon": 39.71577,
      "name": "Ребро"
    },
    {
      "lat": 47.213568,
      "lon": 39.66382,
      "name": "Лев Николаевич"
    },
    {
      "lat": 47.223851,
      "lon": 39.72061,
      "name": "Атташе"
    },
    {
      "lat": 47.236347,
      "lon": 39.59276,
      "name": "Ролл бар Тобико"
    },
    {
      "lat": 47.224169,
      "lon": 39.726139,
      "name": "Шамайка House"
    },
    {
      "lat": 47.227373,
      "lon": 39.713195,
      "name": "Лисичкино"
    },
    {
      "lat": 47.290602,
      "lon": 39.713518,
      "name": ""
    },
    {
      "lat": 47.282939,
      "lon": 39.714239,
      "name": "Старинные часы"
    },
    {
      "lat": 47.21101,
      "lon": 39.725396,
      "name": "Смирнов"
    },
    {
      "lat": 47.212473,
      "lon": 39.729187,
      "name": "Башня"
    },
    {
      "lat": 47.212412,
      "lon": 39.731946,
      "name": "Гостинный дворЪ"
    },
    {
      "lat": 47.244228,
      "lon": 39.764644,
      "name": "Старый Арбат"
    },
    {
      "lat": 47.282731,
      "lon": 39.758623,
      "name": "Оазис"
    },
    {
      "lat": 47.290641,
      "lon": 39.715418,
      "name": "Севан"
    },
    {
      "lat": 47.203516,
      "lon": 39.77078,
      "name": "У Бориса"
    },
    {
      "lat": 47.203077,
      "lon": 39.769944,
      "name": "Зелёный попугай"
    },
    {
      "lat": 47.216755,
      "lon": 39.723548,
      "name": "На даче"
    },
    {
      "lat": 47.26533,
      "lon": 39.721672,
      "name": "Лимонадный Джо"
    },
    {
      "lat": 47.249741,
      "lon": 39.653532,
      "name": ""
    },
    {
      "lat": 47.278778,
      "lon": 39.704418,
      "name": "Рукола"
    },
    {
      "lat": 47.278447,
      "lon": 39.70509,
      "name": ""
    },
    {
      "lat": 47.259349,
      "lon": 39.718744,
      "name": "Амстердам"
    },
    {
      "lat": 47.2591,
      "lon": 39.717994,
      "name": "Ассорти"
    },
    {
      "lat": 47.21448,
      "lon": 39.686689,
      "name": "Lady Anfise"
    },
    {
      "lat": 47.218581,
      "lon": 39.65977,
      "name": "Старое место"
    },
    {
      "lat": 47.217354,
      "lon": 39.808931,
      "name": "Усадьба"
    },
    {
      "lat": 47.238855,
      "lon": 39.636703,
      "name": "Васаби"
    },
    {
      "lat": 47.237569,
      "lon": 39.636258,
      "name": "Виват"
    },
    {
      "lat": 47.215291,
      "lon": 39.63771,
      "name": "Осетинские пироги"
    },
    {
      "lat": 47.288322,
      "lon": 39.715737,
      "name": "Burger & Smoke"
    },
    {
      "lat": 47.254584,
      "lon": 39.613933,
      "name": "Либхабер"
    },
    {
      "lat": 47.208128,
      "lon": 39.625512,
      "name": ""
    },
    {
      "lat": 47.274145,
      "lon": 39.704642,
      "name": "Саджио"
    },
    {
      "lat": 47.29566,
      "lon": 39.704607,
      "name": "Магнит"
    },
    {
      "lat": 47.279731,
      "lon": 39.716099,
      "name": "Супермаркет"
    },
    {
      "lat": 47.263359,
      "lon": 39.795816,
      "name": ""
    },
    {
      "lat": 47.289108,
      "lon": 39.663485,
      "name": "Банкет-холл Жемчужный"
    },
    {
      "lat": 47.286927,
      "lon": 39.665509,
      "name": "Цезарь"
    },
    {
      "lat": 47.287514,
      "lon": 39.665096,
      "name": "Особенное"
    },
    {
      "lat": 47.208149,
      "lon": 39.626236,
      "name": ""
    },
    {
      "lat": 47.212928,
      "lon": 39.628515,
      "name": ""
    }
  ],
  "banks": [
    {
      "lat": 47.228521,
      "lon": 39.752362,
      "name": "Сбербанк"
    },
    {
      "lat": 47.207564,
      "lon": 39.631205,
      "name": "Сбербанк"
    },
    {
      "lat": 47.20758,
      "lon": 39.632592,
      "name": "Райффайзен Банк"
    },
    {
      "lat": 47.29557,
      "lon": 39.703984,
      "name": "Сбербанк"
    },
    {
      "lat": 47.208037,
      "lon": 39.615216,
      "name": "Донкомбанк"
    },
    {
      "lat": 47.207269,
      "lon": 39.616442,
      "name": "Мособлбанк"
    },
    {
      "lat": 47.266493,
      "lon": 39.785899,
      "name": "Сбербанк"
    },
    {
      "lat": 47.250251,
      "lon": 39.764872,
      "name": "Хоум Кредит"
    },
    {
      "lat": 47.227737,
      "lon": 39.634031,
      "name": "Сбербанк"
    },
    {
      "lat": 47.259785,
      "lon": 39.690572,
      "name": "Сбербанк"
    },
    {
      "lat": 47.225925,
      "lon": 39.61658,
      "name": "Центр-Инвест"
    },
    {
      "lat": 47.22583,
      "lon": 39.699254,
      "name": "Донинвест"
    },
    {
      "lat": 47.213974,
      "lon": 39.626522,
      "name": "Сбербанк"
    },
    {
      "lat": 47.207499,
      "lon": 39.688209,
      "name": "Сбербанк"
    },
    {
      "lat": 47.220342,
      "lon": 39.719203,
      "name": "Альфа-Банк"
    },
    {
      "lat": 47.221032,
      "lon": 39.718816,
      "name": "ВТБ"
    },
    {
      "lat": 47.226012,
      "lon": 39.704356,
      "name": "ВТБ"
    },
    {
      "lat": 47.218759,
      "lon": 39.633147,
      "name": "Сбербанк"
    },
    {
      "lat": 47.207568,
      "lon": 39.63194,
      "name": "ВТБ"
    },
    {
      "lat": 47.221739,
      "lon": 39.697643,
      "name": "АМИ-БАНК"
    },
    {
      "lat": 47.231492,
      "lon": 39.765003,
      "name": "Сбербанк"
    },
    {
      "lat": 47.232442,
      "lon": 39.740758,
      "name": "Народный кредит"
    },
    {
      "lat": 47.21998,
      "lon": 39.706083,
      "name": "Сбербанк"
    },
    {
      "lat": 47.234771,
      "lon": 39.70452,
      "name": "Сбербанк"
    },
    {
      "lat": 47.259953,
      "lon": 39.7174,
      "name": "Сбербанк"
    },
    {
      "lat": 47.219809,
      "lon": 39.699499,
      "name": "Сбербанк"
    },
    {
      "lat": 47.215162,
      "lon": 39.708899,
      "name": "Сбербанк"
    },
    {
      "lat": 47.217933,
      "lon": 39.69838,
      "name": "Сбербанк"
    },
    {
      "lat": 47.221854,
      "lon": 39.716836,
      "name": "Сбербанк"
    },
    {
      "lat": 47.223263,
      "lon": 39.723419,
      "name": "Сбербанк"
    },
    {
      "lat": 47.226264,
      "lon": 39.725665,
      "name": "Сбербанк"
    },
    {
      "lat": 47.226868,
      "lon": 39.740789,
      "name": "Сбербанк"
    },
    {
      "lat": 47.227298,
      "lon": 39.766032,
      "name": "Сбербанк"
    },
    {
      "lat": 47.238594,
      "lon": 39.75853,
      "name": "Сбербанк"
    },
    {
      "lat": 47.239984,
      "lon": 39.771165,
      "name": "Сбербанк"
    },
    {
      "lat": 47.224748,
      "lon": 39.730496,
      "name": "Хоум Кредит"
    },
    {
      "lat": 47.225446,
      "lon": 39.729591,
      "name": "Citi Bank"
    },
    {
      "lat": 47.22489,
      "lon": 39.729386,
      "name": "Сбербанк"
    },
    {
      "lat": 47.296724,
      "lon": 39.713557,
      "name": "Сбербанк"
    },
    {
      "lat": 47.291656,
      "lon": 39.713407,
      "name": "ВТБ"
    },
    {
      "lat": 47.21245,
      "lon": 39.615516,
      "name": "Сбербанк"
    },
    {
      "lat": 47.232149,
      "lon": 39.69196,
      "name": "Сбербанк"
    },
    {
      "lat": 47.265234,
      "lon": 39.719195,
      "name": "Сбербанк"
    },
    {
      "lat": 47.282904,
      "lon": 39.71499,
      "name": "Сбербанк"
    },
    {
      "lat": 47.28869,
      "lon": 39.695395,
      "name": "Сбербанк"
    },
    {
      "lat": 47.22899,
      "lon": 39.716233,
      "name": ""
    },
    {
      "lat": 47.228033,
      "lon": 39.714293,
      "name": "Альфа-Банк"
    },
    {
      "lat": 47.226334,
      "lon": 39.713695,
      "name": "ВТБ Банк Москвы"
    },
    {
      "lat": 47.255725,
      "lon": 39.708652,
      "name": "Сбербанк"
    },
    {
      "lat": 47.236988,
      "lon": 39.704208,
      "name": "Сбербанк"
    },
    {
      "lat": 47.208548,
      "lon": 39.631438,
      "name": "Русский Стандарт"
    },
    {
      "lat": 47.258607,
      "lon": 39.718801,
      "name": "Кедр"
    },
    {
      "lat": 47.26237,
      "lon": 39.718693,
      "name": "ВТБ"
    },
    {
      "lat": 47.259575,
      "lon": 39.718534,
      "name": "Донкомбанк"
    },
    {
      "lat": 47.253212,
      "lon": 39.765055,
      "name": "Сбербанк"
    },
    {
      "lat": 47.28385,
      "lon": 39.715326,
      "name": "Альфа-Банк"
    },
    {
      "lat": 47.229201,
      "lon": 39.719697,
      "name": "Центр-Инвест"
    },
    {
      "lat": 47.223841,
      "lon": 39.718432,
      "name": "Газпромбанк"
    },
    {
      "lat": 47.284062,
      "lon": 39.715276,
      "name": "Промсвязьбанк"
    },
    {
      "lat": 47.280511,
      "lon": 39.808324,
      "name": "Сбербанк"
    },