district,lat,lon,population,zone_source,zone_type,zone_orig_name,schools_count,schools_per_1000,kindergartens_count,kindergartens_per_1000,hospitals_count,hospitals_per_1000,clinics_count,clinics_per_1000,pharmacies_count,pharmacies_per_1000,cafes_count,cafes_per_1000,restaurants_count,restaurants_per_1000,banks_count,banks_per_1000,libraries_count,libraries_per_1000,cinemas_count,cinemas_per_1000,theatres_count,theatres_per_1000,post_offices_count,post_offices_per_1000,culture_count,culture_per_1000,shops_count,shops_per_1000,supermarkets_count,supermarkets_per_1000,malls_count,malls_per_1000,parks_count,parks_per_1000,playgrounds_count,playgrounds_per_1000,fitness_count,fitness_per_1000,sport_fields_count,sport_fields_per_1000,bus_stops_count,bus_stops_per_1000
Дзержинский,58.046859,56.123127,153698,preset,district,Дзержинский,5,0.033,2,0.013,0,0.0,1,0.007,5,0.033,0,0.0,0,0.0,1,0.007,0,0.0,0,0.0,0,0.0,1,0.007,0,0.0,18,0.117,9,0.059,0,0.0,2,0.013,10,0.065,2,0.013,4,0.026,15,0.098
Индустриальный,57.931142,56.149641,135676,preset,district,Индустриальный,0,0.0,0,0.0,0,0.0,0,0.0,0,0.0,0,0.0,0,0.0,0,0.0,0,0.0,0,0.0,0,0.0,1,0.007,0,0.0,0,0.0,0,0.0,0,0.0,0,0.0,0,0.0,0,0.0,0,0.0,12,0.088
Ленинский,58.046621,56.22539,31879,preset,district,Ленинский,1,0.031,1,0.031,0,0.0,0,0.0,1,0.031,2,0.063,0,0.0,0,0.0,0,0.0,0,0.0,0,0.0,0,0.0,1,0.031,5,0.157,0,0.0,0,0.0,0,0.0,10,0.314,0,0.0,4,0.125,9,0.282
Мотовилихинский,58.054224,56.346945,255711,preset,district,Мотовилихинский,5,0.02,4,0.016,1,0.004,2,0.008,4,0.016,1,0.004,0,0.0,1,0.004,1,0.004,0,0.0,0,0.0,2,0.008,0,0.0,3,0.012,11,0.043,2,0.008,2,0.008,19,0.074,1,0.004,13,0.051,32,0.125
Свердловский,57.975711,56.256379,154378,preset,district,Свердловский,7,0.045,12,0.078,4,0.026,4,0.026,14,0.091,10,0.065,2,0.013,6,0.039,1,0.006,0,0.0,0,0.0,4,0.026,0,0.0,13,0.084,26,0.168,6,0.039,9,0.058,31,0.201,2,0.013,20,0.13,54,0.35
Кировский,58.021749,55.953045,142817,preset_missing,district,Кировский,2,0.014,5,0.035,0,0.0,2,0.014,0,0.0,0,0.0,0,0.0,0,0.0,0,0.0,0,0.0,0,0.0,0,0.0,0,0.0,1,0.007,6,0.042,2,0.014,0,0.0,15,0.105,0,0.0,4,0.028,4,0.028
Орджоникидзевский,58.1177,56.389564,153358,preset_missing,district,Орджоникидзевский,4,0.026,5,0.033,3,0.02,2,0.013,0,0.0,1,0.007,0,0.0,3,0.02,0,0.0,0,0.0,0,0.0,3,0.02,0,0.0,4,0.026,13,0.085,0,0.0,2,0.013,10,0.065,0,0.0,11,0.072,45,0.293
