{
  "schools": [
    {
      "lat": 55.749904,
      "lon": 52.428435,
      "name": "ЦДТТ № 5"
    },
    {
      "lat": 55.729537,
      "lon": 52.400972,
      "name": "Школа № 35"
    },
    {
      "lat": 55.738532,
      "lon": 52.401006,
      "name": "Школа № 17"
    },
    {
      "lat": 55.734058,
      "lon": 52.395507,
      "name": "Школа № 31"
    },
    {
      "lat": 55.725731,
      "lon": 52.405449,
      "name": "Школа № 47"
    },
    {
      "lat": 55.741296,
      "lon": 52.417059,
      "name": "Школа № 13"
    },
    {
      "lat": 55.745231,
      "lon": 52.407352,
      "name": "Школа № 22"
    },
    {
      "lat": 55.748246,
      "lon": 52.409212,
      "name": "Детская школа театрального искусства"
    },
    {
      "lat": 55.747009,
      "lon": 52.410584,
      "name": ""
    },
    {
      "lat": 55.748735,
      "lon": 52.413722,
      "name": "Гимназия № 26"
    },
    {
      "lat": 55.736616,
      "lon": 52.423729,
      "name": "Гимназия № 61"
    },
    {
      "lat": 55.739103,
      "lon": 52.429739,
      "name": "Школа № 48"
    },
    {
      "lat": 55.72237,
      "lon": 52.399382,
      "name": "Школа №58"
    },
    {
      "lat": 55.718815,
      "lon": 52.399538,
      "name": "Школа № 58"
    },
    {
      "lat": 55.737443,
      "lon": 52.409913,
      "name": "Школа № 14"
    },
    {
      "lat": 55.734929,
      "lon": 52.406846,
      "name": "Школа № 18"
    },
    {
      "lat": 55.728638,
      "lon": 52.407834,
      "name": "Лицей-интернат № 84 им. Г. Акыша"
    },
    {
      "lat": 55.742069,
      "lon": 52.432406,
      "name": "Школа-интернат № 86 «Омет»"
    },
    {
      "lat": 55.718849,
      "lon": 52.378668,
      "name": "Школа № 56"
    },
    {
      "lat": 55.753926,
      "lon": 52.454392,
      "name": "Лицей № 36 «Золотая горка»"
    },
    {
      "lat": 55.752744,
      "lon": 52.456381,
      "name": "Школа № 75 (коррекционная)"
    },
    {
      "lat": 55.72265,
      "lon": 52.376,
      "name": "Средняя общеобразовательная школа бизнеса и менеджмента"
    },
    {
      "lat": 55.721628,
      "lon": 52.371211,
      "name": "Школа № 11"
    },
    {
      "lat": 55.725644,
      "lon": 52.37242,
      "name": "Гимназия № 2 им. Вахитова"
    },
    {
      "lat": 55.719711,
      "lon": 52.402224,
      "name": "Школа № 67 (коррекционная)"
    },
    {
      "lat": 55.721165,
      "lon": 52.40252,
      "name": "Начальная школа-детский сад № 89 для детей с ограниченными возможностями"
    },
    {
      "lat": 55.729932,
      "lon": 52.379151,
      "name": "Школа № 50"
    },
    {
      "lat": 55.764423,
      "lon": 52.436656,
      "name": "Школа № 33"
    },
    {
      "lat": 55.73819,
      "lon": 52.381629,
      "name": "Школа № 82 (кадетская)"
    },
    {
      "lat": 55.735848,
      "lon": 52.380369,
      "name": "Школа № 45"
    },
    {
      "lat": 55.738037,
      "lon": 52.37148,
      "name": "Гимназия № 54"
    },
    {
      "lat": 55.735576,
      "lon": 52.37021,
      "name": "Школа № 53"
    },
    {
      "lat": 55.743295,
      "lon": 52.412046,
      "name": "Школа № 25"
    },
    {
      "lat": 55.748305,
      "lon": 52.426864,
      "name": "Спортивная школа «Комсомолец»"
    },
    {
      "lat": 55.747203,
      "lon": 52.431498,
      "name": "Школа № 15"
    },
    {
      "lat": 55.757182,
      "lon": 52.421692,
      "name": "Школа № 24"
    },
    {
      "lat": 55.759187,
      "lon": 52.441779,
      "name": "Школа № 27"
    },
    {
      "lat": 55.757532,
      "lon": 52.410701,
      "name": "Школа № 23"
    },
    {
      "lat": 55.759611,
      "lon": 52.41481,
      "name": "Школа № 40"
    },
    {
      "lat": 55.753788,
      "lon": 52.394716,
      "name": "Школа № 38"
    },
    {
      "lat": 55.755471,
      "lon": 52.397771,
      "name": "Школа № 65"
    },
    {
      "lat": 55.750418,
      "lon": 52.388547,
      "name": "Лицей № 78 им. А. С. Пушкина"
    },
    {
      "lat": 55.752103,
      "lon": 52.391602,
      "name": "Гимназия № 76"
    },
    {
      "lat": 55.7485,
      "lon": 52.385578,
      "name": "Школа № 46"
    },
    {
      "lat": 55.741219,
      "lon": 52.384828,
      "name": "Школа № 60"
    },
    {
      "lat": 55.705647,
      "lon": 52.334881,
      "name": "Школа № 44"
    },
    {
      "lat": 55.698964,
      "lon": 52.337329,
      "name": "Школа № 7"
    },
    {
      "lat": 55.694905,
      "lon": 52.348214,
      "name": "Школа № 8"
    },
    {
      "lat": 55.69456,
      "lon": 52.341916,
      "name": "Школа № 4"
    },
    {
      "lat": 55.69188,
      "lon": 52.33849,
      "name": "Школа № 69 для детей с ограниченными возможностями здоровья"
    },
    {
      "lat": 55.698956,
      "lon": 52.344945,
      "name": "Кадетская школа полиции «Калкан»"
    },
    {
      "lat": 55.696677,
      "lon": 52.356208,
      "name": "Школа № 21"
    },
    {
      "lat": 55.693025,
      "lon": 52.341315,
      "name": "Школа № 6"
    },
    {
      "lat": 55.762739,
      "lon": 52.440072,
      "name": "Школа № 68 (коррекционная)"
    },
    {
      "lat": 55.693403,
      "lon": 52.303299,
      "name": "Школа № 20"
    },
    {
      "lat": 55.687579,
      "lon": 52.301074,
      "name": "Прогимназия № 64"
    },
    {
      "lat": 55.69141,
      "lon": 52.313066,
      "name": "Школа № 12"
    },
    {
      "lat": 55.689869,
      "lon": 52.30099,
      "name": "Детская школа искусств"
    },
    {
      "lat": 55.753779,
      "lon": 52.321231,
      "name": "СОШ №11"
    },
    {
      "lat": 55.693328,
      "lon": 52.306504,
      "name": "Дом детского творчества № 15"
    },
    {
      "lat": 55.674506,
      "lon": 52.323303,
      "name": "Школа № 39"
    },
    {
      "lat": 55.705988,
      "lon": 52.321887,
      "name": "Школа № 7 (филиал)"
    },
    {
      "lat": 55.756181,
      "lon": 52.439794,
      "name": "Детская школа хореографии Соцветие"
    },
    {
      "lat": 55.729979,
      "lon": 52.367841,
      "name": "Школа № 30"
    },
    {
      "lat": 55.726917,
      "lon": 52.366264,
      "name": "Школа № 41"
    },
    {
      "lat": 55.762051,
      "lon": 52.456237,
      "name": "Школа № 42"
    },
    {
      "lat": 55.670348,
      "lon": 52.312839,
      "name": ""
    },
    {
      "lat": 55.724126,
      "lon": 52.355462,
      "name": "Центр образования № 16"
    }
  ],
  "kindergartens": [
    {
      "lat": 55.699151,
      "lon": 52.356008,
      "name": "Lalioкласс"
    },
    {
      "lat": 55.699115,
      "lon": 52.356122,
      "name": "Art point"
    },
    {
      "lat": 55.762313,
      "lon": 52.421398,
      "name": "Логопедiя"
    },
    {
      "lat": 55.766119,
      "lon": 52.426779,
      "name": "Ум-ка"
    },
    {
      "lat": 55.766242,
      "lon": 52.42604,
      "name": "Маленькие волшебники"
    },
    {
      "lat": 55.701435,
      "lon": 52.311328,
      "name": "Юниор Парк"
    },
    {
      "lat": 55.728454,
      "lon": 52.39623,
      "name": "Детский сад № 69 «Радуга»"
    },
    {
      "lat": 55.732092,
      "lon": 52.401493,
      "name": "Детский сад № 70 «Ягодка»"
    },
    {
      "lat": 55.724709,
      "lon": 52.402866,
      "name": "Детский сад № 59 «Дружба»"
    },
    {
      "lat": 55.72662,
      "lon": 52.406628,
      "name": "Детский сад № 55 «Шалунишка»"
    },
    {
      "lat": 55.738414,
      "lon": 52.403088,
      "name": "Детский сад № 81 «Гульчечек»"
    },
    {
      "lat": 55.736015,
      "lon": 52.395847,
      "name": "Детский сад № 77 «Теремок»"
    },
    {
      "lat": 55.735289,
      "lon": 52.397075,
      "name": "Детский сад № 71 «Кораблик»"
    },
    {
      "lat": 55.74468,
      "lon": 52.402744,
      "name": "Детский сад № 79 «Вишенка»"
    },
    {
      "lat": 55.743875,
      "lon": 52.404446,
      "name": "Детский сад № 67 «Надежда»"
    },
    {
      "lat": 55.750039,
      "lon": 52.412497,
      "name": "Детский сад № 38 «Аленький цветочек»"
    },
    {
      "lat": 55.746466,
      "lon": 52.405942,
      "name": "Детский сад № 74 «Айсылу»"
    },
    {
      "lat": 55.741077,
      "lon": 52.419382,
      "name": "Детский сад № 27 «Росинка»"
    },
    {
      "lat": 55.737809,
      "lon": 52.426352,
      "name": "Детский сад № 65 «Машенька»"
    },
    {
      "lat": 55.738322,
      "lon": 52.424957,
      "name": "Набережночелнинский дом ребенка специализированный"
    },
    {
      "lat": 55.737164,
      "lon": 52.424942,
      "name": "Детский сад № 62 «Весняночка»"
    },
    {
      "lat": 55.750313,
      "lon": 52.446972,
      "name": "Детский сад № 66 «Весёлые нотки»"
    },
    {
      "lat": 55.71824,
      "lon": 52.401859,
      "name": "Детский сад № 100 «Жар-птица»"
    },
    {
      "lat": 55.733661,
      "lon": 52.407266,
      "name": "Детский сад № 37 «Малыш»"
    },
    {
      "lat": 55.738441,
      "lon": 52.409567,
      "name": "Детский сад № 36 «Золотой ключик»"
    },
    {
      "lat": 55.735967,
      "lon": 52.41064,
      "name": "Детский сад № 22 «Колокольчик»"
    },
    {
      "lat": 55.737025,
      "lon": 52.412616,
      "name": "Детский сад № 102 «Созвездие»"
    },
    {
      "lat": 55.734313,
      "lon": 52.408637,
      "name": "Детский сад № 33 «Колобок»"
    },
    {
      "lat": 55.741544,
      "lon": 52.435781,
      "name": "Детский сад № 16 «Скворушка»"
    },
    {
      "lat": 55.742727,
      "lon": 52.433633,
      "name": "Детский сад № 86 «Электроник»"
    },
    {
      "lat": 55.770881,
      "lon": 52.426106,
      "name": "Детский сад № 64 «Ландыш»"
    },
    {
      "lat": 55.767421,
      "lon": 52.43114,
      "name": "Детский сад № 96 «Умничка»"
    },
    {
      "lat": 55.770168,
      "lon": 52.433783,
      "name": "Детский сад № 17 «Лесная сказка»"
    },
    {
      "lat": 55.770687,
      "lon": 52.434781,
      "name": "Детский сад № 20 «Олеся»"
    },
    {
      "lat": 55.717509,
      "lon": 52.380034,
      "name": "Детский сад № 47 «Айгуль»"
    },
    {
      "lat": 55.753395,
      "lon": 52.457607,
      "name": "Детский сад № 8 «Зоренька»"
    },
    {
      "lat": 55.753334,
      "lon": 52.455386,
      "name": "Детский сад № 9 «Алан»"
    },
    {
      "lat": 55.75458,
      "lon": 52.455607,
      "name": "Детский сад № 82 «Подсолнушек»"
    },
    {
      "lat": 55.754009,
      "lon": 52.456607,
      "name": "Детский сад № 109 «Курай»"
    },
    {
      "lat": 55.719814,
      "lon": 52.367506,
      "name": "Детский сад № 2 «Алсу»"
    },
    {
      "lat": 55.723524,
      "lon": 52.374814,
      "name": "Детский сад № 87 «Золушка»"
    },
    {
      "lat": 55.7198,
      "lon": 52.40477,
      "name": "Детский сад № 95 «Балкыш»"
    },
    {
      "lat": 55.720388,
      "lon": 52.401097,
      "name": "Детский сад № 68 «Василёк»"
    },
    {
      "lat": 55.719019,
      "lon": 52.403378,
      "name": "Детский сад № 76 «Ветерок»"
    },
    {
      "lat": 55.727682,
      "lon": 52.37761,
      "name": "Детский сад № 60 «Иволга»"
    },
    {
      "lat": 55.73073,
      "lon": 52.377599,
      "name": "Детский сад № 56 «Родничок»"
    },
    {
      "lat": 55.728846,
      "lon": 52.376708,
      "name": "Детский сад № 45 «Машенька»"
    },
    {
      "lat": 55.734248,
      "lon": 52.387744,
      "name": "Детский сад № 41 «Подснежник»"
    },
    {
      "lat": 55.736959,
      "lon": 52.38935,
      "name": "Детский сад № 44 «Золушка»"
    },
    {
      "lat": 55.738354,
      "lon": 52.383211,
      "name": "Детский сад № 53 «Крепыш»"
    },
    {
      "lat": 55.735966,
      "lon": 52.381954,
      "name": "Детский сад № 94 «Лилия»"
    },
    {
      "lat": 55.733608,
      "lon": 52.380675,
      "name": "Детский сад № 61 «Алёнушка»"
    },
    {
      "lat": 55.739621,
      "lon": 52.375535,
      "name": "Детский сад № 80 «Реченька»"
    },
    {
      "lat": 55.735622,
      "lon": 52.373493,
      "name": "Детский сад № 83 «Фея»"
    },
    {
      "lat": 55.738033,
      "lon": 52.374679,
      "name": "Детский сад № 78 «Ёлочка»"
    },
    {
      "lat": 55.749507,
      "lon": 52.43452,
      "name": "Детский сад № 34 «Золотая рыбка»"
    },
    {
      "lat": 55.748055,
      "lon": 52.433211,
      "name": "Детский сад № 28 «Снежинка»"
    },
    {
      "lat": 55.748446,
      "lon": 52.423383,
      "name": "Детский сад № 30 «Белочка»"
    },
    {
      "lat": 55.752017,
      "lon": 52.430053,
      "name": "Детский сад № 50 «Родничок»"
    },
    {
      "lat": 55.753443,
      "lon": 52.444857,
      "name": "Детский сад № 103 «Тургай»"
    },
    {
      "lat": 55.755953,
      "lon": 52.437439,
      "name": "Детский сад № 52 «Сказка»"
    },
    {
      "lat": 55.755809,
      "lon": 52.418272,
      "name": "Детский сад № 75 «Гвоздичка»"
    },
    {
      "lat": 55.754993,
      "lon": 52.418734,
      "name": "Детский сад № 92 «Голбакча»"
    },
    {
      "lat": 55.760476,
      "lon": 52.444187,
      "name": "Детский сад № 54 «Искорка»"
    },
    {
      "lat": 55.757329,
      "lon": 52.441576,
      "name": "Детский сад № 40 «Колосок»"
    },
    {
      "lat": 55.757161,
      "lon": 52.446595,
      "name": "Детский сад № 51 «Торнакай»"
    },
    {
      "lat": 55.760269,
      "lon": 52.409216,
      "name": "Детский сад № 21 «Радость»"
    },
    {
      "lat": 55.760502,
      "lon": 52.416093,
      "name": "Детский сад № 14 «Зёрнышко»"
    },
    {
      "lat": 55.752712,
      "lon": 52.405855,
      "name": "Детский сад № 31 «Красная шапочка»"
    },
    {
      "lat": 55.750999,
      "lon": 52.402735,
      "name": "Детский сад № 29 «Берёзка»"
    },
    {
      "lat": 55.746794,
      "lon": 52.393811,
      "name": "Детский сад № 39 «Весёлый улей»"
    },
    {
      "lat": 55.754901,
      "lon": 52.399676,
      "name": "Детский сад № 18 «Солнышко»"
    },
    {
      "lat": 55.75321,
      "lon": 52.396556,
      "name": "Детский сад № 7 «Рябинушка»"
    },
    {
      "lat": 55.751514,
      "lon": 52.393442,
      "name": "Детский сад № 46 «Земляничка»"
    },
    {
      "lat": 55.749266,
      "lon": 52.387286,
      "name": "Детский сад № 35 «Соловушка»"
    },
    {
      "lat": 55.731908,
      "lon": 52.368339,
      "name": "Детский сад № 98 «Планета детства»"
    },
    {
      "lat": 55.704053,
      "lon": 52.333552,
      "name": "Детский сад № 91 «Журавушка»"
    },
    {
      "lat": 55.7064,
      "lon": 52.338832,
      "name": "Детский сад № 88 «Лесовичок»"
    },
    {
      "lat": 55.700554,
      "lon": 52.33481,
      "name": "Детский сад № 63 «Жемчужинка»"
    },
    {
      "lat": 55.690024,
      "lon": 52.34297,
      "name": "Детский сад № 15 «Кубелек»"
    },
    {
      "lat": 55.692384,
      "lon": 52.345404,
      "name": "Детский сад № 57 «Веснянка»"
    },
    {
      "lat": 55.693278,
      "lon": 52.337974,
      "name": "Детский сад № 32 «Чайка»"
    },
    {
      "lat": 55.690459,
      "lon": 52.339045,
      "name": "Детский сад № 4 «Веселинка»"
    },
    {
      "lat": 55.696131,
      "lon": 52.353908,
      "name": "Детский сад № 23 «Светлячок»"
    },
    {
      "lat": 55.696724,
      "lon": 52.350459,
      "name": "Детский сад № 19 «Алёнка»"
    },
    {
      "lat": 55.74468,
      "lon": 52.415579,
      "name": "Детский сад № 93 «Ласточка»"
    },
    {
      "lat": 55.759404,
      "lon": 52.417254,
      "name": "Детский сад № 97 «Пчёлка»"
    },
    {
      "lat": 55.76075,
      "lon": 52.407872,
      "name": "Детский сад № 106 «Забава»"
    },
    {
      "lat": 55.696735,
      "lon": 52.318111,
      "name": "Детский сад № 6 «Незабудка»"
    },
    {
      "lat": 55.690195,
      "lon": 52.310432,
      "name": "Детский сад № 42 «Аленький цветочек»"
    },
    {
      "lat": 55.685558,
      "lon": 52.305305,
      "name": "Детский сад № 25 «Сказка»"
    },
    {
      "lat": 55.69801,
      "lon": 52.318152,
      "name": "Детский сад № 84 «Серебряное копытце»"
    },
    {
      "lat": 55.692954,
      "lon": 52.312144,
      "name": "Детский сад № 89 «Чулпан»"
    },
    {
      "lat": 55.69229,
      "lon": 52.315324,
      "name": "Детский сад № 13 «Улыбка»"
    },
    {
      "lat": 55.686733,
      "lon": 52.299878,
      "name": "Детский сад № 1 «Шатлык»"
    },
    {
      "lat": 55.689741,
      "lon": 52.312434,
      "name": "Детский сад № 43 «Ручеёк»"
    },
    {
      "lat": 55.683779,
      "lon": 52.304393,
      "name": "Детский сад № 24 «Буратино»"
    },
    {
      "lat": 55.697144,
      "lon": 52.337924,
      "name": "Детский сад № 101 «Щелкунчик»"
    },
    {
      "lat": 55.677355,
      "lon": 52.32531,
      "name": "Детский сад № 107 «Салават купере»"
    },
    {
      "lat": 55.765354,
      "lon": 52.435593,
      "name": "Детский сад № 110 «Курочка Ряба»"
    },
    {
      "lat": 55.674189,
      "lon": 52.319985,
      "name": "Детский сад № 113 «Непоседы»"
    },
    {
      "lat": 55.761928,
      "lon": 52.459723,
      "name": "Детский сад № 108 «Счастливое детство»"
    },
    {
      "lat": 55.685032,
      "lon": 52.342616,
      "name": "Детский сад № 112 «Мозаика»"
    },
    {
      "lat": 55.727097,
      "lon": 52.368327,
      "name": "Детский сад № 111 «Батыр»"
    },
    {
      "lat": 55.76544,
      "lon": 52.457177,
      "name": "Детский сад № 118 «Яблочко»"
    },
    {
      "lat": 55.74359,
      "lon": 52.384381,
      "name": "Детский сад № 115 «Звёздочки»"
    },
    {
      "lat": 55.679356,
      "lon": 52.330816,
      "name": "Детский сад № 119 «Кроха»"
    },
    {
      "lat": 55.720805,
      "lon": 52.397498,
      "name": "Детский сад № 117 «Уенчык»"
    },
    {
      "lat": 55.726296,
      "lon": 52.359927,
      "name": "Детский сад № 123 «Акчарлак»"
    },
    {
      "lat": 55.685737,
      "lon": 52.340282,
      "name": "Детский сад № 129 «Белоснежка»"
    },
    {
      "lat": 55.680836,
      "lon": 52.333495,
      "name": "Детский сад № 124 «Капитошка»"
    },
    {
      "lat": 55.694138,
      "lon": 52.361529,
      "name": "Детский сад № 126 «Бисеринки»"
    },
    {
      "lat": 55.758169,
      "lon": 52.464582,
      "name": "Детский сад № 121 «Сабантуй»"
    },
    {
      "lat": 55.722791,
      "lon": 52.354818,
      "name": "Детский сад № 130 «Калейдоскоп»"
    },
    {
      "lat": 55.682955,
      "lon": 52.329175,
      "name": "Детский сад № 128 «Шаян»"
    },
    {
      "lat": 55.670751,
      "lon": 52.31737,
      "name": "Детский сад № 127 «Друзья»"
    },
    {
      "lat": 55.756423,
      "lon": 52.469114,
      "name": "Детский сад № 131 «Лучики»"
    },
    {
      "lat": 55.710165,
      "lon": 52.371196,
      "name": "Детский сад № 85 «Карусель»"
    },
    {
      "lat": 55.754701,
      "lon": 52.465184,
      "name": "Детский сад № 132 «Сандугач»"
    }
  ],
  "hospitals": [
    {
      "lat": 55.701501,
      "lon": 52.340122,
      "name": "Республиканский клинический онкологический диспансер"
    },
    {
      "lat": 55.722572,
      "lon": 52.384113,
      "name": "Перинатальный центр"
    },
    {
      "lat": 55.721401,
      "lon": 52.38593,
      "name": "Центр планирования семьи"
    },
    {
      "lat": 55.721618,
      "lon": 52.385301,
      "name": ""
    },
    {
      "lat": 55.722288,
      "lon": 52.384282,
      "name": ""
    },
    {
      "lat": 55.725253,
      "lon": 52.393869,
      "name": "Набережно-челнинская инфекционная больница"
    },
    {
      "lat": 55.72493,
      "lon": 52.388388,
      "name": "Психоневрологический диспансер"
    },
    {
      "lat": 55.723397,
      "lon": 52.385571,
      "name": "Камский детский медицинский центр"
    },
    {
      "lat": 55.723499,
      "lon": 52.38523,
      "name": ""
    },
    {
      "lat": 55.723016,
      "lon": 52.385871,
      "name": ""
    },
    {
      "lat": 55.723498,
      "lon": 52.387777,
      "name": "Лабораторный корпус КДМЦ"
    },
    {
      "lat": 55.725784,
      "lon": 52.389948,
      "name": "Медгард"
    },
    {
      "lat": 55.71675,
      "lon": 52.399122,
      "name": "Центр реабилитации слуха"
    },
    {
      "lat": 55.743319,
      "lon": 52.425886,
      "name": "Набережночелнинский наркологический диспансер"
    },
    {
      "lat": 55.744192,
      "lon": 52.423459,
      "name": "Городская больница № 5"
    },
    {
      "lat": 55.694657,
      "lon": 52.350571,
      "name": "Центр реабилитации инвалидов"
    },
    {
      "lat": 55.696988,
      "lon": 52.3468,
      "name": "Набережночелнинский кожно-венерологический диспансер"
    },
    {
      "lat": 55.700964,
      "lon": 52.341627,
      "name": "БСМП"
    },
    {
      "lat": 55.687525,
      "lon": 52.343145,
      "name": "Тукаевская ЦРБ"
    },
    {
      "lat": 55.6843,
      "lon": 52.306928,
      "name": "Госпиталь для ветеранов войн"
    },
    {
      "lat": 55.755388,
      "lon": 52.325333,
      "name": ""
    }
  ],
  "clinics": [
    {
      "lat": 55.74442,
      "lon": 52.423186,
      "name": "Авицена"
    },
    {
      "lat": 55.726133,
      "lon": 52.39401,
      "name": "Медина"
    },
    {
      "lat": 55.726007,
      "lon": 52.394366,
      "name": "ТатКлиник"
    },
    {
      "lat": 55.724068,
      "lon": 52.388045,
      "name": "НефроМед"
    },
    {
      "lat": 55.729335,
      "lon": 52.394802,
      "name": "Авамедико"
    },
    {
      "lat": 55.720681,
      "lon": 52.390725,
      "name": "Медерика"
    },
    {
      "lat": 55.74327,
      "lon": 52.424996,
      "name": "Цмд"
    },
    {
      "lat": 55.721535,
      "lon": 52.376642,
      "name": "Здорофф"
    },
    {
      "lat": 55.764607,
      "lon": 52.421603,
      "name": "Уромед"
    },
    {
      "lat": 55.759429,
      "lon": 52.436023,
      "name": "Центр восстановительной медицины"
    },
    {
      "lat": 55.742339,
      "lon": 52.426842,
      "name": "Городская поликлиника № 3"
    },
    {
      "lat": 55.684754,
      "lon": 52.307685,
      "name": "Поликлиника № 8"
    },
    {
      "lat": 55.746184,
      "lon": 52.416492,
      "name": ""
    },
    {
      "lat": 55.759176,
      "lon": 52.445087,
      "name": "Я здоров"
    },
    {
      "lat": 55.747668,
      "lon": 52.396365,
      "name": "Детская поликлиника № 5"
    }
  ],
  "pharmacies": [
    {
      "lat": 55.729072,
      "lon": 52.397253,
      "name": "Милфарм"
    },
    {
      "lat": 55.732153,
      "lon": 52.374481,
      "name": ""
    },
    {
      "lat": 55.723151,
      "lon": 52.399393,
      "name": ""
    },
    {
      "lat": 55.716087,
      "lon": 52.400711,
      "name": "Челны-Фарм"
    },
    {
      "lat": 55.724464,
      "lon": 52.397744,
      "name": ""
    },
    {
      "lat": 55.744264,
      "lon": 52.418999,
      "name": "Фармленд"
    },
    {
      "lat": 55.759245,
      "lon": 52.410621,
      "name": "Ихлас"
    },
    {
      "lat": 55.751022,
      "lon": 52.394946,
      "name": "Казанские аптеки"
    },
    {
      "lat": 55.740767,
      "lon": 52.424699,
      "name": "Эскулап"
    },
    {
      "lat": 55.73728,
      "lon": 52.407072,
      "name": "Апрель"
    },
    {
      "lat": 55.738606,
      "lon": 52.386531,
      "name": "Фармленд"
    },
    {
      "lat": 55.692685,
      "lon": 52.310535,
      "name": "Вита Экспресс"
    },
    {
      "lat": 55.742877,
      "lon": 52.422033,
      "name": "Милфарм"
    },
    {
      "lat": 55.687899,
      "lon": 52.305966,
      "name": "Бережная аптека"
    },
    {
      "lat": 55.69862,
      "lon": 52.339293,
      "name": "Вита Экспресс"
    },
    {
      "lat": 55.743495,
      "lon": 52.406406,
      "name": "Пятерочка"
    },
    {
      "lat": 55.736534,
      "lon": 52.385743,
      "name": "Аптека низких цен"
    },
    {
      "lat": 55.745613,
      "lon": 52.424941,
      "name": "Ладушка"
    },
    {
      "lat": 55.745098,
      "lon": 52.425901,
      "name": "Implozia"
    },
    {
      "lat": 55.745571,
      "lon": 52.433346,
      "name": "Эскулап"
    },
    {
      "lat": 55.74751,
      "lon": 52.427176,
      "name": ""
    },
    {
      "lat": 55.745048,
      "lon": 52.421711,
      "name": "АРМ"
    },
    {
      "lat": 55.729693,
      "lon": 52.394347,
      "name": "Вита Экспресс"
    },
    {
      "lat": 55.702213,
      "lon": 52.33695,
      "name": "Семейная аптека"
    },
    {
      "lat": 55.720861,
      "lon": 52.37536,
      "name": "Апрель"
    },
    {
      "lat": 55.754623,
      "lon": 52.450132,
      "name": "Бережная аптека"
    },
    {
      "lat": 55.740716,
      "lon": 52.409269,
      "name": "На Мира"
    },
    {
      "lat": 55.757373,
      "lon": 52.423749,
      "name": "Казанские Аптеки"
    },
    {
      "lat": 55.748831,
      "lon": 52.411382,
      "name": "Алькаир"
    },
    {
      "lat": 55.740166,
      "lon": 52.407976,
      "name": "Вита Центральная"
    },
    {
      "lat": 55.746829,
      "lon": 52.425577,
      "name": "Планета здоровья"
    },
    {
      "lat": 55.73403,
      "lon": 52.404528,
      "name": "Фармаимпекс"
    },
    {
      "lat": 55.759698,
      "lon": 52.42333,
      "name": "Апрель"
    },
    {
      "lat": 55.743788,
      "lon": 52.430269,
      "name": "Аптечный склад"
    },
    {
      "lat": 55.73376,
      "lon": 52.411969,
      "name": "Даруханэ"
    },
    {
      "lat": 55.734738,
      "lon": 52.413793,
      "name": "Магнит Аптека"
    },
    {
      "lat": 55.737154,
      "lon": 52.417751,
      "name": ""
    },
    {
      "lat": 55.737685,
      "lon": 52.417274,
      "name": "Экона"
    },
    {
      "lat": 55.738965,
      "lon": 52.415059,
      "name": "Вита Экспресс"
    },
    {
      "lat": 55.731064,
      "lon": 52.396799,
      "name": "Вита Центральная"
    },
    {
      "lat": 55.731161,
      "lon": 52.397002,
      "name": "Планета здоровья"
    },
    {
      "lat": 55.734317,
      "lon": 52.4041,
      "name": "Магнит аптека"
    },
    {
      "lat": 55.685653,
      "lon": 52.348351,
      "name": ""
    },
    {
      "lat": 55.744556,
      "lon": 52.435716,
      "name": "На поправку"
    },
    {
      "lat": 55.697499,
      "lon": 52.342302,
      "name": ""
    },
    {
      "lat": 55.718713,
      "lon": 52.393616,
      "name": "Вита Экспресс"
    },
    {
      "lat": 55.746511,
      "lon": 52.390486,
      "name": "Вита Экспресс"
    },
    {
      "lat": 55.72045,
      "lon": 52.377534,
      "name": "Вита Экспресс"
    },
    {
      "lat": 55.743747,
      "lon": 52.42845,
      "name": "Вита Экспресс"
    },
    {
      "lat": 55.736572,
      "lon": 52.3856,
      "name": "Вита Экспресс"
    },
    {
      "lat": 55.749781,
      "lon": 52.444772,
      "name": "Вита Экспресс"
    },
    {
      "lat": 55.724143,
      "lon": 52.384459,
      "name": "Вита Экспресс"
    },
    {
      "lat": 55.743583,
      "lon": 52.432822,
      "name": "Вита Экспресс"
    },
    {
      "lat": 55.701511,
      "lon": 52.332161,
      "name": "Вита"
    },
    {
      "lat": 55.748844,
      "lon": 52.415973,
      "name": "Вита Экспресс"
    },
    {
      "lat": 55.746108,
      "lon": 52.425068,
      "name": "Вита Экспресс"
    },
    {
      "lat": 55.694009,
      "lon": 52.30893,
      "name": "Вита Экспресс"
    },
    {
      "lat": 55.762368,
      "lon": 52.417312,
      "name": "Вита Экспресс"
    },
    {
      "lat": 55.759727,
      "lon": 52.421361,
      "name": "Вита Экспресс"
    },
    {
      "lat": 55.758186,
      "lon": 52.416775,
      "name": "Вита Экспресс"
    },
    {
      "lat": 55.736647,
      "lon": 52.378947,
      "name": "Вита Экспресс"
    },
    {
      "lat": 55.756434,
      "lon": 52.464592,
      "name": "Терра Фарм"
    },
    {
      "lat": 55.719634,
      "lon": 52.376003,
      "name": ""
    },
    {
      "lat": 55.744524,
      "lon": 52.394614,
      "name": "Апрель"
    },
    {
      "lat": 55.739464,
      "lon": 52.390299,
      "name": "Вита Экспресс"
    },
    {
      "lat": 55.73464,
      "lon": 52.413615,
      "name": "Вита Экспресс"
    },
    {
      "lat": 55.742319,
      "lon": 52.415549,
      "name": "Вита Экспресс"
    },
    {
      "lat": 55.754212,
      "lon": 52.410235,
      "name": "Вита Экспресс"
    },
    {
      "lat": 55.733085,
      "lon": 52.382281,
      "name": "Еаптека"
    },
    {
      "lat": 55.705322,
      "lon": 52.341987,
      "name": "Алоэ"
    },
    {
      "lat": 55.744319,
      "lon": 52.454315,
      "name": "Алоэ"
    },
    {
      "lat": 55.695676,
      "lon": 52.34075,
      "name": "Вита Экспресс"
    },
    {
      "lat": 55.730872,
      "lon": 52.396964,
      "name": "Вита Центральная"
    },
    {
      "lat": 55.744899,
      "lon": 52.435438,
      "name": "Вита Центральная"
    },
    {
      "lat": 55.759323,
      "lon": 52.422906,
      "name": "Государственная сеть"
    },
    {
      "lat": 55.687605,
      "lon": 52.306512,
      "name": "Экона"
    },
    {
      "lat": 55.759677,
      "lon": 52.423294,
      "name": "Экона"
    },
    {
      "lat": 55.754684,
      "lon": 52.450015,
      "name": "Экона"
    },
    {
      "lat": 55.697748,
      "lon": 52.333943,
      "name": "Бережная аптека"
    },
    {
      "lat": 55.741815,
      "lon": 52.374857,
      "name": "Ригла"
    },
    {
      "lat": 55.69764,
      "lon": 52.313603,
      "name": ""
    },
    {
      "lat": 55.748433,
      "lon": 52.399472,
      "name": "Фармаимпекс"
    },
    {
      "lat": 55.721049,
      "lon": 52.375733,
      "name": "16плюс"
    },
    {
      "lat": 55.754555,
      "lon": 52.431585,
      "name": ""
    },
    {
      "lat": 55.690488,
      "lon": 52.334879,
      "name": "Вита Экспресс"
    },
    {
      "lat": 55.76266,
      "lon": 52.416622,
      "name": "Фармленд"
    },
    {
      "lat": 55.765291,
      "lon": 52.421546,
      "name": "А.Р.М."
    },
    {
      "lat": 55.703459,
      "lon": 52.345767,
      "name": "АРМ"
    },
    {
      "lat": 55.703263,
      "lon": 52.333897,
      "name": "Вита Экспресс"
    },
    {
      "lat": 55.756256,
      "lon": 52.46636,
      "name": "Вита Экспресс"
    },
    {
      "lat": 55.688979,
      "lon": 52.341564,
      "name": "Вита Экспресс"
    },
    {
      "lat": 55.688487,
      "lon": 52.306677,
      "name": "Вита Экспресс"
    },
    {
      "lat": 55.736027,
      "lon": 52.398865,
      "name": "Вита Экспресс"
    },
    {
      "lat": 55.763083,
      "lon": 52.429487,
      "name": "А.Р.М."
    },
    {
      "lat": 55.6962,
      "lon": 52.334327,
      "name": "Вита Экспресс"
    },
    {
      "lat": 55.762014,
      "lon": 52.443655,
      "name": "Фармленд"
    },
    {
      "lat": 55.730214,
      "lon": 52.364951,
      "name": "Фармленд"
    },
    {
      "lat": 55.739894,
      "lon": 52.422707,
      "name": "Фармленд"
    },
    {
      "lat": 55.746879,
      "lon": 52.408009,
      "name": "Фармленд"
    },
    {
      "lat": 55.698514,
      "lon": 52.314322,
      "name": "Фармленд"
    },
    {
      "lat": 55.738169,
      "lon": 52.39802,
      "name": "Фармленд"
    },
    {
      "lat": 55.721484,
      "lon": 52.356898,
      "name": "Фармленд"
    },
    {
      "lat": 55.680189,
      "lon": 52.328813,
      "name": "Фармленд"
    },
    {
      "lat": 55.722033,
      "lon": 52.369533,
      "name": "Фармленд"
    },
    {
      "lat": 55.759342,
      "lon": 52.411791,
      "name": "Фармленд"
    },
    {
      "lat": 55.721208,
      "lon": 52.391416,
      "name": "Фармленд"
    },
    {
      "lat": 55.755284,
      "lon": 52.462813,
      "name": "Фармленд"
    },
    {
      "lat": 55.743692,
      "lon": 52.371828,
      "name": "Фармленд"
    },
    {
      "lat": 55.700504,
      "lon": 52.332613,
      "name": "Фармленд"
    },
    {
      "lat": 55.70189,
      "lon": 52.334319,
      "name": "Фармленд"
    },
    {
      "lat": 55.753902,
      "lon": 52.432255,
      "name": "Фармленд"
    },
    {
      "lat": 55.751433,
      "lon": 52.441958,
      "name": "Фармленд"
    },
    {
      "lat": 55.703206,
      "lon": 52.333498,
      "name": "Фармленд"
    },
    {
      "lat": 55.694624,
      "lon": 52.336788,
      "name": "Фармленд"
    },
    {
      "lat": 55.733464,
      "lon": 52.383836,
      "name": "Фармленд"
    },
    {
      "lat": 55.740007,
      "lon": 52.405619,
      "name": "Фармленд"
    },
    {
      "lat": 55.72914,
      "lon": 52.365115,
      "name": "Фармленд"
    },
    {
      "lat": 55.756897,
      "lon": 52.423881,
      "name": "Фармленд"
    },
    {
      "lat": 55.75343,
      "lon": 52.399798,
      "name": "Фармленд"
    },
    {
      "lat": 55.748698,
      "lon": 52.400402,
      "name": "Фармленд"
    },
    {
      "lat": 55.756485,
      "lon": 52.417386,
      "name": "Фармленд"
    },
    {
      "lat": 55.759042,
      "lon": 52.447646,
      "name": "Государственная сеть"
    },
    {
      "lat": 55.70964,
      "lon": 52.373286,
      "name": "Вита Экспресс"
    },
    {
      "lat": 55.758454,
      "lon": 52.421769,
      "name": "16 плюс"
    },
    {
      "lat": 55.766206,
      "lon": 52.420606,
      "name": "Фармленд"
    },
    {
      "lat": 55.761745,
      "lon": 52.43884,
      "name": "Фармленд"
    },
    {
      "lat": 55.672654,
      "lon": 52.323297,
      "name": "Фармленд"
    },
    {
      "lat": 55.745567,
      "lon": 52.379366,
      "name": "Ригла"
    },
    {
      "lat": 55.745494,
      "lon": 52.395426,
      "name": "Здравсити"
    },
    {
      "lat": 55.695552,
      "lon": 52.344657,
      "name": "Здравсити"
    },
    {
      "lat": 55.742354,
      "lon": 52.42723,
      "name": "Государственная сеть"
    },
    {
      "lat": 55.688043,
      "lon": 52.342999,
      "name": "Государственная сеть"
    },
    {
      "lat": 55.684214,
      "lon": 52.307133,
      "name": "Государственная сеть"
    },
    {
      "lat": 55.724332,
      "lon": 52.386765,
      "name": "Государственная сеть"
    },
    {
      "lat": 55.701797,
      "lon": 52.341691,
      "name": "Государственная сеть"
    },
    {
      "lat": 55.727125,
      "lon": 52.40212,
      "name": "Государственная сеть"
    },
    {
      "lat": 55.698601,
      "lon": 52.317088,
      "name": "Государственная сеть"
    },
    {
      "lat": 55.696992,
      "lon": 52.346303,
      "name": "Апрель"
    },
    {
      "lat": 55.75718,
      "lon": 52.416584,
      "name": "Вита"
    },
    {
      "lat": 55.725697,
      "lon": 52.39957,
      "name": "Вита Экспресс"
    },
    {
      "lat": 55.730852,
      "lon": 52.391023,
      "name": "Бальзам"
    },
    {
      "lat": 55.730538,
      "lon": 52.391492,
      "name": "Фармленд"
    },
    {
      "lat": 55.724983,
      "lon": 52.381265,
      "name": "Фармленд"
    }
  ],
  "cafes": [
    {
      "lat": 55.657582,
      "lon": 52.346548,
      "name": "Римус"
    },
    {
      "lat": 55.65607,
      "lon": 52.340008,
      "name": "Перспектива"
    },
    {
      "lat": 55.669905,
      "lon": 52.343904,
      "name": ""
    },
    {
      "lat": 55.741994,
      "lon": 52.387324,
      "name": "Тайфун"
    },
    {
      "lat": 55.696331,
      "lon": 52.413915,
      "name": "Волшебное"
    },
    {
      "lat": 55.733681,
      "lon": 52.436543,
      "name": "У Генрика"
    },
    {
      "lat": 55.726739,
      "lon": 52.414632,
      "name": "Валентина"
    },
    {
      "lat": 55.73932,
      "lon": 52.41379,
      "name": "Театральное"
    },
    {
      "lat": 55.757465,
      "lon": 52.437524,
      "name": "Диляра"
    },
    {
      "lat": 55.688447,
      "lon": 52.304433,
      "name": "Сытная гавань"
    },
    {
      "lat": 55.725421,
      "lon": 52.421408,
      "name": ""
    },
    {
      "lat": 55.745953,
      "lon": 52.42479,
      "name": "Шифа"
    },
    {
      "lat": 55.731701,
      "lon": 52.395761,
      "name": "Chicago"
    },
    {
      "lat": 55.743696,
      "lon": 52.425152,
      "name": "Винтаж"
    },
    {
      "lat": 55.698614,
      "lon": 52.313262,
      "name": "Малахит"
    },
    {
      "lat": 55.735428,
      "lon": 52.423943,
      "name": "Relax"
    },
    {
      "lat": 55.738604,
      "lon": 52.450175,
      "name": "Coffee Cava"
    },
    {
      "lat": 55.737081,
      "lon": 52.442996,
      "name": ""
    },
    {
      "lat": 55.701859,
      "lon": 52.33363,
      "name": "Рокнроллы"
    },
    {
      "lat": 55.700096,
      "lon": 52.317161,
      "name": "Колобок"
    },
    {
      "lat": 55.704323,
      "lon": 52.400315,
      "name": "Колобок"
    },
    {
      "lat": 55.721259,
      "lon": 52.408317,
      "name": "Колобок"
    },
    {
      "lat": 55.743007,
      "lon": 52.437514,
      "name": "Колобок"
    },
    {
      "lat": 55.74375,
      "lon": 52.443249,
      "name": "Любер"
    },
    {
      "lat": 55.74506,
      "lon": 52.37916,
      "name": "Султан"
    },
    {
      "lat": 55.751827,
      "lon": 52.448116,
      "name": "Маленький Токио"
    },
    {
      "lat": 55.745368,
      "lon": 52.431657,
      "name": "Халяль пиццерия"
    },
    {
      "lat": 55.743903,
      "lon": 52.435285,
      "name": "Смак"
    },
    {
      "lat": 55.700083,
      "lon": 52.417831,
      "name": "Шатлык"
    },
    {
      "lat": 55.740102,
      "lon": 52.407909,
      "name": "Бинхартс кофе"
    },
    {
      "lat": 55.752401,
      "lon": 52.426251,
      "name": "Прага"
    },
    {
      "lat": 55.732921,
      "lon": 52.397847,
      "name": "Sky Lounge"
    },
    {
      "lat": 55.753381,
      "lon": 52.424027,
      "name": "Леруа"
    },
    {
      "lat": 55.745565,
      "lon": 52.389999,
      "name": "Шашлык Машлык"
    },
    {
      "lat": 55.731484,
      "lon": 52.395318,
      "name": "mishka"
    },
    {
      "lat": 55.701399,
      "lon": 52.343806,
      "name": ""
    },
    {
      "lat": 55.656071,
      "lon": 52.34759,
      "name": "Хабиб"
    },
    {
      "lat": 55.724426,
      "lon": 52.424703,
      "name": "Огонёк"
    },
    {
      "lat": 55.741865,
      "lon": 52.41393,
      "name": "Coffee Like"
    },
    {
      "lat": 55.74367,
      "lon": 52.43297,
      "name": "Coffee Like"
    },
    {
      "lat": 55.684855,
      "lon": 52.307996,
      "name": "Coffee Like"
    },
    {
      "lat": 55.735747,
      "lon": 52.415659,
      "name": "Стамбул"
    },
    {
      "lat": 55.737702,
      "lon": 52.417239,
      "name": "Аланья"
    },
    {
      "lat": 55.729946,
      "lon": 52.394829,
      "name": "Рокнроллы"
    },
    {
      "lat": 55.729497,
      "lon": 52.394541,
      "name": "Brew Bar"
    },
    {
      "lat": 55.732713,
      "lon": 52.399869,
      "name": "Vinegret"
    },
    {
      "lat": 55.732999,
      "lon": 52.400472,
      "name": "Hey suns"
    },
    {
      "lat": 55.703564,
      "lon": 52.345395,
      "name": "Coffee Like"
    },
    {
      "lat": 55.675323,
      "lon": 52.332913,
      "name": "Бричка"
    },
    {
      "lat": 55.691614,
      "lon": 52.421991,
      "name": "Узбечка"
    },
    {
      "lat": 55.700277,
      "lon": 52.407152,
      "name": ""
    },
    {
      "lat": 55.704408,
      "lon": 52.400085,
      "name": "Лагманная"
    },
    {
      "lat": 55.724958,
      "lon": 52.387328,
      "name": "Компот"
    },
    {
      "lat": 55.711204,
      "lon": 52.394165,
      "name": "Чайхана"
    },
    {
      "lat": 55.71012,
      "lon": 52.393534,
      "name": "Coffee Mall"
    },
    {
      "lat": 55.742949,
      "lon": 52.422029,
      "name": "Дом плова"
    },
    {
      "lat": 55.700148,
      "lon": 52.315944,
      "name": "Мусульманин"
    },
    {
      "lat": 55.741445,
      "lon": 52.425565,
      "name": "Халяль"
    },
    {
      "lat": 55.672402,
      "lon": 52.336987,
      "name": "Халяль"
    },
    {
      "lat": 55.743089,
      "lon": 52.436259,
      "name": "Чойхона"
    },
    {
      "lat": 55.679122,
      "lon": 52.44852,
      "name": "Ням-Ням"
    },
    {
      "lat": 55.699505,
      "lon": 52.376369,
      "name": "Бахор"
    },
    {
      "lat": 55.674842,
      "lon": 52.328259,
      "name": ""
    },
    {
      "lat": 55.752429,
      "lon": 52.410482,
      "name": "Бинхартс Кофе"
    },
    {
      "lat": 55.696764,
      "lon": 52.368835,
      "name": "На Первой"
    },
    {
      "lat": 55.702039,
      "lon": 52.381744,
      "name": "Лагманная"
    },
    {
      "lat": 55.740204,
      "lon": 52.406836,
      "name": "Бинхартс Лайт"
    },
    {
      "lat": 55.692968,
      "lon": 52.305045,
      "name": "Alif cafe"
    },
    {
      "lat": 55.717384,
      "lon": 52.37169,
      "name": "Fergana"
    },
    {
      "lat": 55.696044,
      "lon": 52.305723,
      "name": ""
    },
    {
      "lat": 55.69509,
      "lon": 52.304885,
      "name": "Экспресс"
    },
    {
      "lat": 55.746487,
      "lon": 52.41502,
      "name": "Coffee Like"
    },
    {
      "lat": 55.74076,
      "lon": 52.414622,
      "name": "Coffee Like"
    },
    {
      "lat": 55.742448,
      "lon": 52.41552,
      "name": "Coffee Like"
    },
    {
      "lat": 55.740557,
      "lon": 52.404892,
      "name": "Chojo"
    },
    {
      "lat": 55.749482,
      "lon": 52.437137,
      "name": "Дружба"
    },
    {
      "lat": 55.749296,
      "lon": 52.437454,
      "name": "Нектар"
    },
    {
      "lat": 55.758903,
      "lon": 52.458109,
      "name": "Papino"
    },
    {
      "lat": 55.684943,
      "lon": 52.303027,
      "name": "Timeking"
    },
    {
      "lat": 55.7466,
      "lon": 52.463715,
      "name": "Таджикистан"
    },
    {
      "lat": 55.720571,
      "lon": 52.374821,
      "name": "Рокнроллы"
    },
    {
      "lat": 55.746581,
      "lon": 52.413159,
      "name": "Хэнди"
    },
    {
      "lat": 55.768046,
      "lon": 52.457183,
      "name": "Barista home"
    },
    {
      "lat": 55.68528,
      "lon": 52.303409,
      "name": "Фортуна"
    },
    {
      "lat": 55.688018,
      "lon": 52.355567,
      "name": "Тэмле"
    },
    {
      "lat": 55.757463,
      "lon": 52.404701,
      "name": "Sevendays Coffee"
    },
    {
      "lat": 55.741355,
      "lon": 52.425722,
      "name": "Аш Су"
    },
    {
      "lat": 55.742154,
      "lon": 52.414173,
      "name": "Караоке каждый день"
    },
    {
      "lat": 55.736175,
      "lon": 52.389942,
      "name": "The moment"
    },
    {
      "lat": 55.731652,
      "lon": 52.395636,
      "name": "Бухара"
    },
    {
      "lat": 55.686961,
      "lon": 52.30572,
      "name": "Султан"
    },
    {
      "lat": 55.762055,
      "lon": 52.453372,
      "name": "Tea Funny"
    },
    {
      "lat": 55.741198,
      "lon": 52.415248,
      "name": "Первая вареничная"
    },
    {
      "lat": 55.751803,
      "lon": 52.409509,
      "name": "Tea Funny"
    },
    {
      "lat": 55.754073,
      "lon": 52.429309,
      "name": "Рокнроллы"
    },
    {
      "lat": 55.759228,
      "lon": 52.396612,
      "name": "Прибрежный"
    },
    {
      "lat": 55.687597,
      "lon": 52.305704,
      "name": "Рокнроллы"
    },
    {
      "lat": 55.749656,
      "lon": 52.384284,
      "name": "Рокнроллы"
    },
    {
      "lat": 55.74636,
      "lon": 52.421134,
      "name": "Рокнроллы"
    },
    {
      "lat": 55.743614,
      "lon": 52.419041,
      "name": "Рокнроллы"
    },
    {
      "lat": 55.688821,
      "lon": 52.310602,
      "name": ""
    },
    {
      "lat": 55.763115,
      "lon": 52.445821,
      "name": "Госпожа удача"
    },
    {
      "lat": 55.746974,
      "lon": 52.380404,
      "name": "Дивар"
    },
    {
      "lat": 55.74715,
      "lon": 52.380644,
      "name": ""
    },
    {
      "lat": 55.744846,
      "lon": 52.431541,
      "name": "Чайхана «Чорсу»"
    },
    {
      "lat": 55.752991,
      "lon": 52.430849,
      "name": "Новый город"
    },
    {
      "lat": 55.741316,
      "lon": 52.414958,
      "name": "Хочу и Буду"
    },
    {
      "lat": 55.725113,
      "lon": 52.374615,
      "name": "Халяль"
    },
    {
      "lat": 55.706417,
      "lon": 52.394198,
      "name": ""
    },
    {
      "lat": 55.715366,
      "lon": 52.371429,
      "name": "Орловский дворик"
    },
    {
      "lat": 55.715314,
      "lon": 52.373075,
      "name": "Искандар"
    },
    {
      "lat": 55.759531,
      "lon": 52.436437,
      "name": "Чемодан"
    },
    {
      "lat": 55.745124,
      "lon": 52.379167,
      "name": "Мидийное место"
    },
    {
      "lat": 55.745543,
      "lon": 52.389982,
      "name": "Bravissimo"
    },
    {
      "lat": 55.654626,
      "lon": 52.32262,
      "name": ""
    },
    {
      "lat": 55.655299,
      "lon": 52.327654,
      "name": "Хабиб"
    },
    {
      "lat": 55.748057,
      "lon": 52.417495,
      "name": "Papa Doni"
    },
    {
      "lat": 55.706395,
      "lon": 52.394327,
      "name": "Фаэтон"
    },
    {
      "lat": 55.746879,
      "lon": 52.414981,
      "name": ""
    },
    {
      "lat": 55.738048,
      "lon": 52.377658,
      "name": ""
    },
    {
      "lat": 55.732092,
      "lon": 52.406036,
      "name": ""
    },
    {
      "lat": 55.700651,
      "lon": 52.331608,
      "name": "Бинхартс кофе"
    },
    {
      "lat": 55.745114,
      "lon": 52.422082,
      "name": "Coffee Like"
    },
    {
      "lat": 55.701745,
      "lon": 52.314328,
      "name": ""
    },
    {
      "lat": 55.724764,
      "lon": 52.381019,
      "name": "Gagawa"
    }
  ],
  "restaurants": [
    {
      "lat": 55.738711,
      "lon": 52.418067,
      "name": "Forrest"
    },
    {
      "lat": 55.738851,
      "lon": 52.417819,
      "name": "Грузинские истории"
    },
    {
      "lat": 55.747585,
      "lon": 52.412949,
      "name": "Maximilian's"
    },
    {
      "lat": 55.702896,
      "lon": 52.328689,
      "name": "Каймак"
    },
    {
      "lat": 55.748486,
      "lon": 52.447194,
      "name": "Белые ночи"
    },
    {
      "lat": 55.744894,
      "lon": 52.432404,
      "name": "Peter's"
    },
    {
      "lat": 55.744353,
      "lon": 52.429778,
      "name": "Boho"
    },
    {
      "lat": 55.746098,
      "lon": 52.383885,
      "name": "Lumiere Cafe"
    },
    {
      "lat": 55.705144,
      "lon": 52.346968,
      "name": "Терраса"
    },
    {
      "lat": 55.748741,
      "lon": 52.438393,
      "name": "Гранат"
    },
    {
      "lat": 55.740516,
      "lon": 52.410501,
      "name": "Gastrocos"
    },
    {
      "lat": 55.69856,
      "lon": 52.320408,
      "name": "Вай Гоги"
    },
    {
      "lat": 55.717264,
      "lon": 52.37151,
      "name": "The Bird"
    },
    {
      "lat": 55.758704,
      "lon": 52.410734,
      "name": "Ашсу"
    },
    {
      "lat": 55.762935,
      "lon": 52.429214,
      "name": "Суши House"
    },
    {
      "lat": 55.740194,
      "lon": 52.423546,
      "name": "Суши House"
    },
    {
      "lat": 55.726995,
      "lon": 52.390076,
      "name": "Суши House"
    },
    {
      "lat": 55.733102,
      "lon": 52.389448,
      "name": "Суши House"
    },
    {
      "lat": 55.690575,
      "lon": 52.33482,
      "name": "Суши House"
    },
    {
      "lat": 55.755365,
      "lon": 52.433413,
      "name": "Сердэш"
    },
    {
      "lat": 55.761178,
      "lon": 52.443592,
      "name": "Chocolate"
    },
    {
      "lat": 55.746775,
      "lon": 52.378395,
      "name": "Dubai"
    },
    {
      "lat": 55.754602,
      "lon": 52.401886,
      "name": "Дом"
    },
    {
      "lat": 55.691621,
      "lon": 52.359357,
      "name": "Бакинский дворик"
    },
    {
      "lat": 55.741565,
      "lon": 52.425796,
      "name": "Татарская Домашняя Кухня"
    },
    {
      "lat": 55.744987,
      "lon": 52.42037,
      "name": "Искушение"
    },
    {
      "lat": 55.699482,
      "lon": 52.315791,
      "name": "Старый город"
    },
    {
      "lat": 55.738068,
      "lon": 52.391799,
      "name": "Peter's"
    },
    {
      "lat": 55.741879,
      "lon": 52.41449,
      "name": "Узбекистан"
    },
    {
      "lat": 55.724322,
      "lon": 52.380703,
      "name": "Хочу Пури"
    },
    {
      "lat": 55.724409,
      "lon": 52.380951,
      "name": "Перчини"
    }
  ],
  "banks": [
    {
      "lat": 55.730421,
      "lon": 52.393164,
      "name": "Ак Барс Банк"
    },
    {
      "lat": 55.740558,
      "lon": 52.414763,
      "name": "Ак Барс Банк"
    },
    {
      "lat": 55.734607,
      "lon": 52.403598,
      "name": "Сбербанк"
    },
    {
      "lat": 55.730721,
      "lon": 52.396194,
      "name": "Почта Банк"
    },
    {
      "lat": 55.74703,
      "lon": 52.416013,
      "name": "Абсолют"
    },
    {
      "lat": 55.749006,
      "lon": 52.399559,
      "name": "БыстроБанк"
    },
    {
      "lat": 55.742234,
      "lon": 52.393673,
      "name": "ВТБ"
    },
    {
      "lat": 55.69609,
      "lon": 52.34888,
      "name": "Сбербанк"
    },
    {
      "lat": 55.697874,
      "lon": 52.333593,
      "name": "Сбербанк"
    },
    {
      "lat": 55.698888,
      "lon": 52.317548,
      "name": "Сбербанк"
    },
    {
      "lat": 55.699624,
      "lon": 52.354343,
      "name": "Сбербанк"
    },
    {
      "lat": 55.70325,
      "lon": 52.3337,
      "name": "Сбербанк"
    },
    {
      "lat": 55.738905,
      "lon": 52.415097,
      "name": "Сбербанк"
    },
    {
      "lat": 55.745628,
      "lon": 52.425092,
      "name": "Сбербанк"
    },
    {
      "lat": 55.748692,
      "lon": 52.415878,
      "name": "Сбербанк"
    },
    {
      "lat": 55.753208,
      "lon": 52.430789,
      "name": "Сбербанк"
    },
    {
      "lat": 55.755333,
      "lon": 52.451057,
      "name": "Сбербанк"
    },
    {
      "lat": 55.731994,
      "lon": 52.396269,
      "name": "Промсвязьбанк"
    },
    {
      "lat": 55.731707,
      "lon": 52.3979,
      "name": "ВТБ"
    },
    {
      "lat": 55.731683,
      "lon": 52.397883,
      "name": "Газпромбанк"
    },
    {
      "lat": 55.748535,
      "lon": 52.420308,
      "name": "Акибанк"
    },
    {
      "lat": 55.754883,
      "lon": 52.431113,
      "name": "Ак Барс Банк"
    },
    {
      "lat": 55.740262,
      "lon": 52.416539,
      "name": "Акибанк"
    },
    {
      "lat": 55.741058,
      "lon": 52.41411,
      "name": "Ак Барс Банк"
    },
    {
      "lat": 55.744885,
      "lon": 52.421891,
      "name": "Акибанк"
    },
    {
      "lat": 55.74416,
      "lon": 52.387834,
      "name": "Сбербанк"
    },
    {
      "lat": 55.720898,
      "lon": 52.379134,
      "name": "Россельхозбанк"
    },
    {
      "lat": 55.702999,
      "lon": 52.331849,
      "name": "ВТБ"
    },
    {
      "lat": 55.745128,
      "lon": 52.43571,
      "name": "Сбербанк"
    },
    {
      "lat": 55.719539,
      "lon": 52.375863,
      "name": "Сбербанк"
    },
    {
      "lat": 55.737439,
      "lon": 52.391347,
      "name": "Финам"
    },
    {
      "lat": 55.732624,
      "lon": 52.397394,
      "name": "Татсоцбанк"
    },
    {
      "lat": 55.731591,
      "lon": 52.39553,
      "name": "Энергобанк"
    },
    {
      "lat": 55.731881,
      "lon": 52.396056,
      "name": "Русский Стандарт"
    },
    {
      "lat": 55.700651,
      "lon": 52.332579,
      "name": "Совкомбанк"
    },
    {
      "lat": 55.693562,
      "lon": 52.308343,
      "name": "Совкомбанк"
    },
    {
      "lat": 55.730068,
      "lon": 52.395562,
      "name": "Сбербанк"
    },
    {
      "lat": 55.732177,
      "lon": 52.398881,
      "name": "Альфа-Банк"
    },
    {
      "lat": 55.73236,
      "lon": 52.399217,
      "name": "Совкомбанк"
    },
    {
      "lat": 55.732296,
      "lon": 52.399093,
      "name": "Росбанк"
    },
    {
      "lat": 55.729391,
      "lon": 52.394693,
      "name": "Уральский банк реконструкции и развития"
    },
    {
      "lat": 55.732865,
      "lon": 52.397777,
      "name": "Уральский банк реконструкции и развития"
    },
    {
      "lat": 55.744551,
      "lon": 52.394431,
      "name": "Альфа-Банк"
    },
    {
      "lat": 55.740713,
      "lon": 52.414462,
      "name": "Сбербанк"
    },
    {
      "lat": 55.73678,
      "lon": 52.393571,
      "name": "Сбербанк"
    },
    {
      "lat": 55.738439,
      "lon": 52.45033,
      "name": "Модульбанк"
    },
    {
      "lat": 55.749096,
      "lon": 52.437637,
      "name": "Сбербанк"
    },
    {
      "lat": 55.710936,
      "lon": 52.360711,
      "name": "Ак Барс Банк"
    },
    {
      "lat": 55.709814,
      "lon": 52.358217,
      "name": "Ак Барс Банк"
    },
    {
      "lat": 55.725519,
      "lon": 52.378357,
      "name": "Ак Барс Банк"
    },
    {
      "lat": 55.740596,
      "lon": 52.414741,
      "name": "Ак Барс Банк"
    },
    {
      "lat": 55.697737,
      "lon": 52.30792,
      "name": "Ак Барс Банк"
    },
    {
      "lat": 55.741016,
      "lon": 52.428784,
      "name": "Ак Барс Банк"
    },
    {
      "lat": 55.746566,
      "lon": 52.425283,
      "name": "Ак Барс Банк"
    },
    {
      "lat": 55.697733,
      "lon": 52.333809,
      "name": "Ак Барс Банк"
    },
    {
      "lat": 55.742951,
      "lon": 52.3942,
      "name": "Уралсиб"
    },
    {
      "lat": 55.743566,
      "lon": 52.391918,
      "name": "Ак Барс Банк"
    },
    {
      "lat": 55.750865,
      "lon": 52.423148,
      "name": "Совкомбанк"
    },
    {
      "lat": 55.748556,
      "lon": 52.400531,
      "name": "Совкомбанк"
    },
    {
      "lat": 55.754126,
      "lon": 52.429075,
      "name": "Совкомбанк"
    },
    {
      "lat": 55.745032,
      "lon": 52.421021,
      "name": "Совкомбанк"
    },
    {
      "lat": 55.737841,
      "lon": 52.419358,
      "name": "ВТБ"
    },
    {
      "lat": 55.744559,
      "lon": 52.39433,
      "name": "Цифра банк"
    },
    {
      "lat": 55.754342,
      "lon": 52.402646,
      "name": "Энергобанк"
    },
    {
      "lat": 55.686961,
      "lon": 52.304937,
      "name": "Акибанк"
    },
    {
      "lat": 55.735849,
      "lon": 52.385428,
      "name": "Акибанк"
    },
    {
      "lat": 55.748844,
      "lon": 52.443019,
      "name": "Акибанк"
    },
    {
      "lat": 55.739122,
      "lon": 52.417373,
      "name": "Банк Казани"
    },
    {
      "lat": 55.744646,
      "lon": 52.419686,
      "name": "МТС Банк"
    },
    {
      "lat": 55.755688,
      "lon": 52.432647,
      "name": "Акибанк"
    },
    {
      "lat": 55.690688,
      "lon": 52.302665,
      "name": "Ак Барс Банк"
    },
    {
      "lat": 55.745348,
      "lon": 52.425501,
      "name": "ВТБ"
    },
    {
      "lat": 55.731782,
      "lon": 52.395867,
      "name": "ВТБ"
    },
    {
      "lat": 55.73693,
      "lon": 52.401749,
      "name": "Сбербанк"
    },
    {
      "lat": 55.732194,
      "lon": 52.382189,
      "name": "Сбербанк"
    },
    {
      "lat": 55.743909,
      "lon": 52.430379,
      "name": "Кредит Европа Банк"
    },
    {
      "lat": 55.744028,
      "lon": 52.397477,
      "name": "Зенит"
    },
    {
      "lat": 55.754597,
      "lon": 52.411028,
      "name": "Сбербанк"
    },
    {
      "lat": 55.74885,
      "lon": 52.442983,
      "name": "Акибанк"
    },
    {
      "lat": 55.750497,
      "lon": 52.395664,
      "name": "Сбербанк"
    },
    {
      "lat": 55.765782,
      "lon": 52.432383,
      "name": "Сбербанк"
    }
  ],
  "libraries": [
    {
      "lat": 55.731046,
      "lon": 52.400211,
      "name": ""
    },
    {
      "lat": 55.762878,
      "lon": 52.423847,
      "name": "Детская библиотека № 14"
    },
    {
      "lat": 55.745422,
      "lon": 52.409959,
      "name": "Центральная детская библиотека"
    },
    {
      "lat": 55.751168,
      "lon": 52.432235,
      "name": "Библиотека для детей и взрослых"
    },
    {
      "lat": 55.697292,
      "lon": 52.348113,
      "name": ""
    },
    {
      "lat": 55.698064,
      "lon": 52.358573,
      "name": "Библиотека Филиал № 3"
    },
    {
      "lat": 55.726693,
      "lon": 52.40299,
      "name": "Библиотека-филиал № 24"
    },
    {
      "lat": 55.728982,
      "lon": 52.386651,
      "name": "Библиотека Набережночелнинский институт КФУ"
    }
  ],
  "cinemas": [
    {
      "lat": 55.742059,
      "lon": 52.414019,
      "name": "Иллюзиум"
    },
    {
      "lat": 55.751389,
      "lon": 52.410259,
      "name": "Мадагаскар"
    },
    {
      "lat": 55.724943,
      "lon": 52.380565,
      "name": "Синема Парк"
    }
  ],
  "theatres": [
    {
      "lat": 55.74231,
      "lon": 52.399736,
      "name": "Концертный зал им. Сары Садыковой"
    },
    {
      "lat": 55.741383,
      "lon": 52.42503,
      "name": "Ключ"
    },
    {
      "lat": 55.74706,
      "lon": 52.4101,
      "name": "Набережночелнинский государственный театр кукол"
    },
    {
      "lat": 55.742925,
      "lon": 52.437695,
      "name": "Персонаж"
    },
    {
      "lat": 55.75007,
      "lon": 52.439993,
      "name": "Концертный зал органной музыки"
    },
    {
      "lat": 55.700693,
      "lon": 52.348431,
      "name": "Татарский драматический театр им. Аяза Гилязова"
    },
    {
      "lat": 55.740682,
      "lon": 52.40474,
      "name": "Амфитеатр"
    },
    {
      "lat": 55.754779,
      "lon": 52.392436,
      "name": "Русский драматический театр «Мастеровые»"
    }
  ],
  "post_offices": [
    {
      "lat": 55.730657,
      "lon": 52.39612,
      "name": "Набережные Челны 423812"
    },
    {
      "lat": 55.749326,
      "lon": 52.409529,
      "name": "СПСР"
    },
    {
      "lat": 55.765871,
      "lon": 52.423997,
      "name": "Набережные Челны 423826"
    },
    {
      "lat": 55.707488,
      "lon": 52.324134,
      "name": "Набережные Челны 423801"
    },
    {
      "lat": 55.690295,
      "lon": 52.308778,
      "name": "Набережные Челны 423802"
    },
    {
      "lat": 55.696429,
      "lon": 52.334224,
      "name": "Набережные Челны 423803"
    },
    {
      "lat": 55.741746,
      "lon": 52.399563,
      "name": "Набережные Челны 423805"
    },
    {
      "lat": 55.699517,
      "lon": 52.354683,
      "name": "Набережные Челны 423806"
    },
    {
      "lat": 55.73424,
      "lon": 52.40413,
      "name": "Набережные Челны 423809"
    },
    {
      "lat": 55.738891,
      "lon": 52.421235,
      "name": "Набережные Челны 423810"
    },
    {
      "lat": 55.720428,
      "lon": 52.396031,
      "name": "Набережные Челны 423814"
    },
    {
      "lat": 55.746713,
      "lon": 52.423347,
      "name": "Набережные Челны 423815"
    },
    {
      "lat": 55.75811,
      "lon": 52.409725,
      "name": "Набережные Челны 423816"
    },
    {
      "lat": 55.75346,
      "lon": 52.430346,
      "name": "Набережные Челны 423818"
    },
    {
      "lat": 55.739107,
      "lon": 52.414861,
      "name": "Набережные Челны 423819"
    },
    {
      "lat": 55.760601,
      "lon": 52.425578,
      "name": "Набережные Челны 423821"
    },
    {
      "lat": 55.749261,
      "lon": 52.415904,
      "name": "Набережные Челны 423823"
    },
    {
      "lat": 55.764728,
      "lon": 52.438542,
      "name": "Набережные Челны 423825"
    },
    {
      "lat": 55.751348,
      "lon": 52.442236,
      "name": "Набережные Челны 423827"
    },
    {
      "lat": 55.749446,
      "lon": 52.397642,
      "name": "Набережные Челны 423831"
    },
    {
      "lat": 55.735985,
      "lon": 52.379079,
      "name": "Набережные Челны 423832"
    },
    {
      "lat": 55.735417,
      "lon": 52.424741,
      "name": "Набережные Челны 423834"
    },
    {
      "lat": 55.72321,
      "lon": 52.411912,
      "name": "Байкал-Сервис"
    },
    {
      "lat": 55.738393,
      "lon": 52.449972,
      "name": "Набережные Челны 423824"
    },
    {
      "lat": 55.711539,
      "lon": 52.411062,
      "name": "Деловые линии"
    },
    {
      "lat": 55.721851,
      "lon": 52.380934,
      "name": "Набережные Челны 423822"
    },
    {
      "lat": 55.718377,
      "lon": 52.386324,
      "name": "СДЭК"
    },
    {
      "lat": 55.710035,
      "lon": 52.43706,
      "name": "Набережные Челны 423804"
    },
    {
      "lat": 55.681174,
      "lon": 52.330647,
      "name": "СДЭК"
    },
    {
      "lat": 55.737622,
      "lon": 52.391269,
      "name": "СДЭК"
    },
    {
      "lat": 55.690167,
      "lon": 52.308644,
      "name": "СДЭК"
    },
    {
      "lat": 55.697904,
      "lon": 52.319544,
      "name": "СДЭК"
    },
    {
      "lat": 55.7524,
      "lon": 52.406891,
      "name": "СДЭК"
    },
    {
      "lat": 55.729841,
      "lon": 52.363222,
      "name": "СДЭК"
    },
    {
      "lat": 55.739818,
      "lon": 52.422195,
      "name": "СДЭК"
    },
    {
      "lat": 55.761865,
      "lon": 52.453156,
      "name": "СДЭК"
    },
    {
      "lat": 55.710955,
      "lon": 52.437684,
      "name": "Набережные Челны"
    },
    {
      "lat": 55.697386,
      "lon": 52.359838,
      "name": "Boxberry"
    },
    {
      "lat": 55.705907,
      "lon": 52.38834,
      "name": "СДЭК"
    },
    {
      "lat": 55.712607,
      "lon": 52.409983,
      "name": "КСЭ"
    },
    {
      "lat": 55.696465,
      "lon": 52.307701,
      "name": "СДЭК"
    }
  ],
  "culture": [],
  "shops": [
    {
      "lat": 55.738538,
      "lon": 52.386408,
      "name": ""
    },
    {
      "lat": 55.731947,
      "lon": 52.37437,
      "name": ""
    },
    {
      "lat": 55.734167,
      "lon": 52.372449,
      "name": ""
    },
    {
      "lat": 55.732098,
      "lon": 52.394332,
      "name": ""
    },
    {
      "lat": 55.754804,
      "lon": 52.324623,
      "name": ""
    },
    {
      "lat": 55.726761,
      "lon": 52.363316,
      "name": "Продукты"
    },
    {
      "lat": 55.716005,
      "lon": 52.400518,
      "name": "Челны-Хлеб № 39"
    },
    {
      "lat": 55.743924,
      "lon": 52.418515,
      "name": ""
    },
    {
      "lat": 55.753103,
      "lon": 52.408736,
      "name": ""
    },
    {
      "lat": 55.740697,
      "lon": 52.424016,
      "name": "999"
    },
    {
      "lat": 55.688297,
      "lon": 52.304533,
      "name": "Час-Пик"
    },
    {
      "lat": 55.755595,
      "lon": 52.416035,
      "name": "Магнит"
    },
    {
      "lat": 55.737167,
      "lon": 52.406864,
      "name": "Дуслык"
    },
    {
      "lat": 55.751362,
      "lon": 52.442005,
      "name": "Челны-Хлеб № 2"
    },
    {
      "lat": 55.74896,
      "lon": 52.400737,
      "name": "Радуга"
    },
    {
      "lat": 55.746962,
      "lon": 52.412877,
      "name": "Челны-Хлеб № 25"
    },
    {
      "lat": 55.762094,
      "lon": 52.444069,
      "name": "Челны-Хлеб № 28"
    },
    {
      "lat": 55.735624,
      "lon": 52.383746,
      "name": "Челны-Хлеб № 30"
    },
    {
      "lat": 55.700395,
      "lon": 52.352328,
      "name": "Челны-Хлеб № 31"
    },
    {
      "lat": 55.743713,
      "lon": 52.42869,
      "name": "Челны-Хлеб"
    },
    {
      "lat": 55.74956,
      "lon": 52.443431,
      "name": "Челны-Хлеб № 45"
    },
    {
      "lat": 55.737205,
      "lon": 52.418023,
      "name": "Чижик"
    },
    {
      "lat": 55.75399,
      "lon": 52.437565,
      "name": "Берёзка"
    },
    {
      "lat": 55.726262,
      "lon": 52.400517,
      "name": "Магнит"
    },
    {
      "lat": 55.745724,
      "lon": 52.409837,
      "name": "Находка"
    },
    {
      "lat": 55.701809,
      "lon": 52.333384,
      "name": "Челны-Хлеб"
    },
    {
      "lat": 55.684977,
      "lon": 52.345475,
      "name": ""
    },
    {
      "lat": 55.744804,
      "lon": 52.439319,
      "name": ""
    },
    {
      "lat": 55.720012,
      "lon": 52.373448,
      "name": "Магнит"
    },
    {
      "lat": 55.745053,
      "lon": 52.404973,
      "name": "Авокадо"
    },
    {
      "lat": 55.755891,
      "lon": 52.416924,
      "name": ""
    },
    {
      "lat": 55.737551,
      "lon": 52.429232,
      "name": "Социальный"
    },
    {
      "lat": 55.740358,
      "lon": 52.383087,
      "name": "Камилла"
    },
    {
      "lat": 55.720313,
      "lon": 52.374409,
      "name": "Байрам"
    },
    {
      "lat": 55.7406,
      "lon": 52.410009,
      "name": "Тэмле"
    },
    {
      "lat": 55.755258,
      "lon": 52.451301,
      "name": "Камилла-23"
    },
    {
      "lat": 55.743942,
      "lon": 52.400944,
      "name": "Уют"
    },
    {
      "lat": 55.741758,
      "lon": 52.387313,
      "name": "Ассорти"
    },
    {
      "lat": 55.744904,
      "lon": 52.439494,
      "name": "Fresco"
    },
    {
      "lat": 55.760492,
      "lon": 52.426406,
      "name": "Янтарь"
    },
    {
      "lat": 55.687081,
      "lon": 52.340625,
      "name": "Камилла"
    },
    {
      "lat": 55.742355,
      "lon": 52.414769,
      "name": ""
    },
    {
      "lat": 55.716777,
      "lon": 52.39414,
      "name": "Минимаркет"
    },
    {
      "lat": 55.741134,
      "lon": 52.425321,
      "name": "Магнит"
    },
    {
      "lat": 55.749595,
      "lon": 52.443588,
      "name": "Магнит"
    },
    {
      "lat": 55.746917,
      "lon": 52.42882,
      "name": "Океан вкуса"
    },
    {
      "lat": 55.743338,
      "lon": 52.391288,
      "name": ""
    },
    {
      "lat": 55.684926,
      "lon": 52.305334,
      "name": "Милана"
    },
    {
      "lat": 55.756988,
      "lon": 52.426167,
      "name": "Магнит"
    },
    {
      "lat": 55.764688,
      "lon": 52.413514,
      "name": "Камские полуфабрикаты"
    },
    {
      "lat": 55.739349,
      "lon": 52.414354,
      "name": "Погребок"
    },
    {
      "lat": 55.740614,
      "lon": 52.408683,
      "name": "Продукты 24"
    },
    {
      "lat": 55.729966,
      "lon": 52.394875,
      "name": "Находка"
    },
    {
      "lat": 55.731791,
      "lon": 52.398175,
      "name": "Магнит"
    },
    {
      "lat": 55.714392,
      "lon": 52.413766,
      "name": "Маяк"
    },
    {
      "lat": 55.69071,
      "lon": 52.360525,
      "name": "Челны маркет"
    },
    {
      "lat": 55.697975,
      "lon": 52.342776,
      "name": ""
    },
    {
      "lat": 55.732032,
      "lon": 52.495815,
      "name": "Находка"
    },
    {
      "lat": 55.697775,
      "lon": 52.353322,
      "name": "Находка"
    },
    {
      "lat": 55.694413,
      "lon": 52.309195,
      "name": "Находка"
    },
    {
      "lat": 55.722436,
      "lon": 52.3593,
      "name": "Находка"
    },
    {
      "lat": 55.713743,
      "lon": 52.400015,
      "name": "Находка"
    },
    {
      "lat": 55.669232,
      "lon": 52.342343,
      "name": "Находка"
    },
    {
      "lat": 55.766347,
      "lon": 52.412545,
      "name": "Находка"
    },
    {
      "lat": 55.745409,
      "lon": 52.431568,
      "name": "ЭКО Натур Маркет"
    },
    {
      "lat": 55.770028,
      "lon": 52.430876,
      "name": "Победа"
    },
    {
      "lat": 55.714227,
      "lon": 52.399072,
      "name": "Победа"
    },
    {
      "lat": 55.70515,
      "lon": 52.387579,
      "name": ""
    },
    {
      "lat": 55.676121,
      "lon": 52.464935,
      "name": ""
    },
    {
      "lat": 55.693383,
      "lon": 52.317182,
      "name": "Магнит"
    },
    {
      "lat": 55.674808,
      "lon": 52.328203,
      "name": ""
    },
    {
      "lat": 55.733825,
      "lon": 52.404823,
      "name": "Находка"
    },
    {
      "lat": 55.675812,
      "lon": 52.329549,
      "name": "Находка"
    },
    {
      "lat": 55.697579,
      "lon": 52.366993,
      "name": "Находка"
    },
    {
      "lat": 55.725369,
      "lon": 52.38667,
      "name": ""
    },
    {
      "lat": 55.711138,
      "lon": 52.361435,
      "name": "Фея"
    },
    {
      "lat": 55.695572,
      "lon": 52.338429,
      "name": "Рэтро"
    },
    {
      "lat": 55.698944,
      "lon": 52.333353,
      "name": "Находка"
    },
    {
      "lat": 55.685285,
      "lon": 52.340879,
      "name": "Фасоль"
    },
    {
      "lat": 55.728562,
      "lon": 52.379902,
      "name": "Фасоль"
    },
    {
      "lat": 55.74494,
      "lon": 52.421257,
      "name": "Фасоль"
    },
    {
      "lat": 55.735925,
      "lon": 52.376574,
      "name": "Авокадо"
    },
    {
      "lat": 55.761479,
      "lon": 52.458016,
      "name": "Green маркет"
    },
    {
      "lat": 55.720771,
      "lon": 52.3942,
      "name": "Авокадо"
    },
    {
      "lat": 55.75428,
      "lon": 52.433184,
      "name": "Находка"
    },
    {
      "lat": 55.741638,
      "lon": 52.42598,
      "name": "Находка"
    },
    {
      "lat": 55.747807,
      "lon": 52.4449,
      "name": "Находка"
    },
    {
      "lat": 55.696648,
      "lon": 52.310414,
      "name": ""
    },
    {
      "lat": 55.719178,
      "lon": 52.447944,
      "name": ""
    },
    {
      "lat": 55.68727,
      "lon": 52.305804,
      "name": "Пельмени и манты"
    },
    {
      "lat": 55.76297,
      "lon": 52.417307,
      "name": "Бристоль"
    },
    {
      "lat": 55.748522,
      "lon": 52.438704,
      "name": "Находка"
    },
    {
      "lat": 55.722022,
      "lon": 52.376943,
      "name": ""
    },
    {
      "lat": 55.765184,
      "lon": 52.421399,
      "name": "Сарман икмәге"
    },
    {
      "lat": 55.76695,
      "lon": 52.424007,
      "name": ""
    },
    {
      "lat": 55.703545,
      "lon": 52.345499,
      "name": "Хан"
    },
    {
      "lat": 55.698031,
      "lon": 52.316573,
      "name": "Находка"
    },
    {
      "lat": 55.743748,
      "lon": 52.436326,
      "name": "Находка"
    },
    {
      "lat": 55.735839,
      "lon": 52.36575,
      "name": "Находка"
    },
    {
      "lat": 55.761767,
      "lon": 52.422521,
      "name": "Фогель"
    },
    {
      "lat": 55.755831,
      "lon": 52.422179,
      "name": "Эссен Экспресс"
    },
    {
      "lat": 55.763885,
      "lon": 52.420155,
      "name": "Байрам"
    },
    {
      "lat": 55.762822,
      "lon": 52.426273,
      "name": "Агросила"
    },
    {
      "lat": 55.692678,
      "lon": 52.333412,
      "name": "Находка"
    },
    {
      "lat": 55.740406,
      "lon": 52.430626,
      "name": "Находка"
    },
    {
      "lat": 55.727919,
      "lon": 52.3797,
      "name": "Находка"
    },
    {
      "lat": 55.736444,
      "lon": 52.387264,
      "name": "Находка"
    },
    {
      "lat": 55.721575,
      "lon": 52.392154,
      "name": "Находка"
    },
    {
      "lat": 55.767259,
      "lon": 52.429228,
      "name": "Сум"
    },
    {
      "lat": 55.752512,
      "lon": 52.426075,
      "name": "Фасоль"
    },
    {
      "lat": 55.763689,
      "lon": 52.425518,
      "name": "Камские полуфабрикаты"
    },
    {
      "lat": 55.759492,
      "lon": 52.422795,
      "name": "Камские полуфабрикаты"
    },
    {
      "lat": 55.757523,
      "lon": 52.425156,
      "name": "Авокадо"
    },
    {
      "lat": 55.758027,
      "lon": 52.425915,
      "name": ""
    },
    {
      "lat": 55.760383,
      "lon": 52.431269,
      "name": "Авокадо"
    },
    {
      "lat": 55.762803,
      "lon": 52.428968,
      "name": "Радуга вкуса"
    },
    {
      "lat": 55.762449,
      "lon": 52.435995,
      "name": "Магнит"
    },
    {
      "lat": 55.762466,
      "lon": 52.436249,
      "name": ""
    },
    {
      "lat": 55.69268,
      "lon": 52.310148,
      "name": "Меридиан"
    },
    {
      "lat": 55.698562,
      "lon": 52.313963,
      "name": "Челны-Хлеб № 57"
    },
    {
      "lat": 55.744805,
      "lon": 52.434621,
      "name": ""
    },
    {
      "lat": 55.733382,
      "lon": 52.398437,
      "name": "Камилла"
    },
    {
      "lat": 55.735967,
      "lon": 52.398986,
      "name": "Магнит"
    },
    {
      "lat": 55.704886,
      "lon": 52.332282,
      "name": "Авокадо"
    },
    {
      "lat": 55.71707,
      "lon": 52.377635,
      "name": "Ашамлыклар"
    },
    {
      "lat": 55.767215,
      "lon": 52.434511,
      "name": ""
    },
    {
      "lat": 55.73866,
      "lon": 52.420502,
      "name": "Магнит"
    },
    {
      "lat": 55.729798,
      "lon": 52.394548,
      "name": "ВкусВилл"
    },
    {
      "lat": 55.752193,
      "lon": 52.41087,
      "name": "ВкусВилл"
    },
    {
      "lat": 55.743259,
      "lon": 52.382529,
      "name": ""
    },
    {
      "lat": 55.747102,
      "lon": 52.413041,
      "name": "Продсклад Победа"
    },
    {
      "lat": 55.755832,
      "lon": 52.446823,
      "name": "Продмаркет"
    },
    {
      "lat": 55.756073,
      "lon": 52.446999,
      "name": "Челны-Хлеб № 22"
    },
    {
      "lat": 55.719301,
      "lon": 52.388199,
      "name": "Челны-Хлеб № 11"
    },
    {
      "lat": 55.735771,
      "lon": 52.40789,
      "name": "Минимаркет"
    },
    {
      "lat": 55.731358,
      "lon": 52.378757,
      "name": ""
    },
    {
      "lat": 55.74587,
      "lon": 52.424838,
      "name": "Глобус"
    },
    {
      "lat": 55.759855,
      "lon": 52.410253,
      "name": "Универсал"
    },
    {
      "lat": 55.745299,
      "lon": 52.390133,
      "name": "Челны-Хлеб № 9"
    },
    {
      "lat": 55.75266,
      "lon": 52.398116,
      "name": "Наиля"
    },
    {
      "lat": 55.75139,
      "lon": 52.395836,
      "name": "Челны-Хлеб № 13"
    },
    {
      "lat": 55.748968,
      "lon": 52.391407,
      "name": "Смак"
    },
    {
      "lat": 55.745831,
      "lon": 52.386939,
      "name": "Челны-Хлеб"
    },
    {
      "lat": 55.749262,
      "lon": 52.391818,
      "name": "Магнит"
    },
    {
      "lat": 55.722528,
      "lon": 52.39418,
      "name": "Магнит"
    },
    {
      "lat": 55.750265,
      "lon": 52.452979,
      "name": ""
    },
    {
      "lat": 55.698541,
      "lon": 52.339377,
      "name": "Челны-Хлеб"
    },
    {
      "lat": 55.695578,
      "lon": 52.344794,
      "name": "Камилла"
    },
    {
      "lat": 55.692158,
      "lon": 52.34257,
      "name": ""
    },
    {
      "lat": 55.694434,
      "lon": 52.356872,
      "name": ""
    },
    {
      "lat": 55.735441,
      "lon": 52.40216,
      "name": "Кристина"
    },
    {
      "lat": 55.734544,
      "lon": 52.413451,
      "name": "Вкусный ряд"
    },
    {
      "lat": 55.688953,
      "lon": 52.341409,
      "name": "Камилла-7"
    },
    {
      "lat": 55.683482,
      "lon": 52.34286,
      "name": "Челны-Хлеб № 6"
    },
    {
      "lat": 55.74367,
      "lon": 52.403044,
      "name": "Челны-Хлеб № 7"
    },
    {
      "lat": 55.727885,
      "lon": 52.405984,
      "name": "Каравай"
    },
    {
      "lat": 55.747239,
      "lon": 52.413559,
      "name": "Мясновъ"
    },
    {
      "lat": 55.758818,
      "lon": 52.419582,
      "name": "Продукты 24"
    },
    {
      "lat": 55.763836,
      "lon": 52.442418,
      "name": "Милеш"
    },
    {
      "lat": 55.762664,
      "lon": 52.417677,
      "name": ""
    },
    {
      "lat": 55.731271,
      "lon": 52.372726,
      "name": "Камилла"
    },
    {
      "lat": 55.730902,
      "lon": 52.371593,
      "name": ""
    },
    {
      "lat": 55.75856,
      "lon": 52.405072,
      "name": ""
    },
    {
      "lat": 55.751808,
      "lon": 52.400505,
      "name": "Эллада"
    },
    {
      "lat": 55.758472,
      "lon": 52.409917,
      "name": "Рустам-Н"
    },
    {
      "lat": 55.732493,
      "lon": 52.389414,
      "name": ""
    },
    {
      "lat": 55.738948,
      "lon": 52.393818,
      "name": "Эконом"
    },
    {
      "lat": 55.754535,
      "lon": 52.452049,
      "name": "Акара"
    },
    {
      "lat": 55.739872,
      "lon": 52.432938,
      "name": "Радость"
    },
    {
      "lat": 55.725236,
      "lon": 52.385597,
      "name": "Мираж"
    },
    {
      "lat": 55.758477,
      "lon": 52.436335,
      "name": "Эльвина"
    },
    {
      "lat": 55.752432,
      "lon": 52.425981,
      "name": ""
    },
    {
      "lat": 55.75274,
      "lon": 52.425763,
      "name": ""
    },
    {
      "lat": 55.770671,
      "lon": 52.430042,
      "name": "Челны-Хлеб № 5"
    },
    {
      "lat": 55.753226,
      "lon": 52.407332,
      "name": "Челны-Хлеб № 24"
    },
    {
      "lat": 55.762617,
      "lon": 52.414473,
      "name": "Челны-хлеб № 42"
    },
    {
      "lat": 55.738779,
      "lon": 52.369073,
      "name": "Челны-Хлеб № 38"
    },
    {
      "lat": 55.72596,
      "lon": 52.400067,
      "name": "Лотос"
    },
    {
      "lat": 55.725749,
      "lon": 52.399658,
      "name": ""
    },
    {
      "lat": 55.720282,
      "lon": 52.395382,
      "name": "Магнит"
    },
    {
      "lat": 55.714171,
      "lon": 52.39906,
      "name": "Тэмле"
    },
    {
      "lat": 55.721578,
      "lon": 52.396037,
      "name": "Минимаркет"
    },
    {
      "lat": 55.746659,
      "lon": 52.385661,
      "name": "Шатлык"
    },
    {
      "lat": 55.701219,
      "lon": 52.345515,
      "name": ""
    },
    {
      "lat": 55.744979,
      "lon": 52.388197,
      "name": ""
    },
    {
      "lat": 55.724618,
      "lon": 52.407724,
      "name": ""
    },
    {
      "lat": 55.756278,
      "lon": 52.435911,
      "name": ""
    }
  ],
  "supermarkets": [
    {
      "lat": 55.730837,
      "lon": 52.396443,
      "name": "Пятёрочка"
    },
    {
      "lat": 55.687432,
      "lon": 52.305554,
      "name": "Пятёрочка"
    },
    {
      "lat": 55.751484,
      "lon": 52.433815,
      "name": "Дискаунтер"
    },
    {
      "lat": 55.725422,
      "lon": 52.399025,
      "name": "Пятёрочка"
    },
    {
      "lat": 55.690044,
      "lon": 52.336721,
      "name": "Пятёрочка"
    },
    {
      "lat": 55.694578,
      "lon": 52.31265,
      "name": "Пятёрочка"
    },
    {
      "lat": 55.736674,
      "lon": 52.372515,
      "name": "Пятёрочка"
    },
    {
      "lat": 55.738243,
      "lon": 52.420065,
      "name": "Пятёрочка"
    },
    {
      "lat": 55.734317,
      "lon": 52.403984,
      "name": "Магнит"
    },
    {
      "lat": 55.736711,
      "lon": 52.421908,
      "name": "Пятёрочка"
    },
    {
      "lat": 55.739567,
      "lon": 52.405492,
      "name": "Fresh Market"
    },
    {
      "lat": 55.744003,
      "lon": 52.406378,
      "name": "Магнит"
    },
    {
      "lat": 55.743519,
      "lon": 52.406438,
      "name": "Пятёрочка"
    },
    {
      "lat": 55.733961,
      "lon": 52.389808,
      "name": "Пятёрочка"
    },
    {
      "lat": 55.718876,
      "lon": 52.368484,
      "name": "Пятёрочка"
    },
    {
      "lat": 55.744819,
      "lon": 52.42637,
      "name": "Магнит"
    },
    {
      "lat": 55.737615,
      "lon": 52.417338,
      "name": "Магнит"
    },
    {
      "lat": 55.745098,
      "lon": 52.432167,
      "name": "Fresco"
    },
    {
      "lat": 55.747569,
      "lon": 52.427202,
      "name": "Тэмле"
    },
    {
      "lat": 55.747995,
      "lon": 52.421218,
      "name": "Пятёрочка"
    },
    {
      "lat": 55.750282,
      "lon": 52.430746,
      "name": "Челны-хлеб"
    },
    {
      "lat": 55.754916,
      "lon": 52.431352,
      "name": "Тэмле"
    },
    {
      "lat": 55.755915,
      "lon": 52.434485,
      "name": "Эссен-экспресс"
    },
    {
      "lat": 55.756426,
      "lon": 52.453343,
      "name": "Пятёрочка"
    },
    {
      "lat": 55.733732,
      "lon": 52.411896,
      "name": "Пятёрочка"
    },
    {
      "lat": 55.743946,
      "lon": 52.418471,
      "name": "Магнит"
    },
    {
      "lat": 55.747152,
      "lon": 52.416218,
      "name": "Камилла-19"
    },
    {
      "lat": 55.729459,
      "lon": 52.394601,
      "name": "Магнит"
    },
    {
      "lat": 55.759234,
      "lon": 52.422753,
      "name": "Пятёрочка"
    },
    {
      "lat": 55.72382,
      "lon": 52.377511,
      "name": "Fresco"
    },
    {
      "lat": 55.720462,
      "lon": 52.378899,
      "name": "Магнит"
    },
    {
      "lat": 55.718762,
      "lon": 52.393354,
      "name": "Пятёрочка"
    },
    {
      "lat": 55.677384,
      "lon": 52.323376,
      "name": "Чаллы Икмеге"
    },
    {
      "lat": 55.677954,
      "lon": 52.324481,
      "name": "Пятёрочка"
    },
    {
      "lat": 55.746979,
      "lon": 52.413058,
      "name": "Пятёрочка"
    },
    {
      "lat": 55.742085,
      "lon": 52.387271,
      "name": "Пятёрочка"
    },
    {
      "lat": 55.748784,
      "lon": 52.411421,
      "name": "Камилла"
    },
    {
      "lat": 55.739206,
      "lon": 52.425214,
      "name": "Пятёрочка"
    },
    {
      "lat": 55.742404,
      "lon": 52.415453,
      "name": "Пятёрочка"
    },
    {
      "lat": 55.723378,
      "lon": 52.399899,
      "name": "Магнит"
    },
    {
      "lat": 55.71726,
      "lon": 52.391649,
      "name": "Пятёрочка"
    },
    {
      "lat": 55.752425,
      "lon": 52.410311,
      "name": "Перекрёсток"
    },
    {
      "lat": 55.695555,
      "lon": 52.35044,
      "name": "Пятёрочка"
    },
    {
      "lat": 55.743494,
      "lon": 52.388952,
      "name": "Магнит"
    },
    {
      "lat": 55.758281,
      "lon": 52.427442,
      "name": "Пятёрочка"
    },
    {
      "lat": 55.744819,
      "lon": 52.392985,
      "name": "Пятёрочка"
    },
    {
      "lat": 55.698164,
      "lon": 52.319781,
      "name": "Пятёрочка"
    },
    {
      "lat": 55.734765,
      "lon": 52.41385,
      "name": "Магнит"
    },
    {
      "lat": 55.733692,
      "lon": 52.405074,
      "name": "Пятёрочка"
    },
    {
      "lat": 55.740122,
      "lon": 52.42309,
      "name": "Пятёрочка"
    },
    {
      "lat": 55.685536,
      "lon": 52.348246,
      "name": "Пятёрочка"
    },
    {
      "lat": 55.694371,
      "lon": 52.335088,
      "name": "Магнит"
    },
    {
      "lat": 55.695414,
      "lon": 52.334612,
      "name": "Пятёрочка"
    },
    {
      "lat": 55.763947,
      "lon": 52.41435,
      "name": "Магнит"
    },
    {
      "lat": 55.749588,
      "lon": 52.392694,
      "name": "Пятёрочка"
    },
    {
      "lat": 55.73842,
      "lon": 52.418586,
      "name": "Глобус маркет"
    },
    {
      "lat": 55.745548,
      "lon": 52.431227,
      "name": "Пятёрочка"
    },
    {
      "lat": 55.697227,
      "lon": 52.315664,
      "name": "Пятёрочка"
    },
    {
      "lat": 55.745525,
      "lon": 52.395577,
      "name": "Магнит"
    },
    {
      "lat": 55.72814,
      "lon": 52.370002,
      "name": "Пятёрочка"
    },
    {
      "lat": 55.696019,
      "lon": 52.334366,
      "name": "Магнит"
    },
    {
      "lat": 55.698656,
      "lon": 52.333379,
      "name": "Пятёрочка"
    },
    {
      "lat": 55.763591,
      "lon": 52.458896,
      "name": "Магнит"
    },
    {
      "lat": 55.69899,
      "lon": 52.331425,
      "name": "Пятёрочка"
    },
    {
      "lat": 55.69382,
      "lon": 52.358427,
      "name": "Пятёрочка"
    },
    {
      "lat": 55.745635,
      "lon": 52.395488,
      "name": ""
    },
    {
      "lat": 55.76938,
      "lon": 52.438291,
      "name": "Пятёрочка"
    },
    {
      "lat": 55.721867,
      "lon": 52.392887,
      "name": "Пятёрочка"
    },
    {
      "lat": 55.686654,
      "lon": 52.31317,
      "name": "Челны Хлеб"
    },
    {
      "lat": 55.760454,
      "lon": 52.412746,
      "name": "Пятёрочка"
    },
    {
      "lat": 55.693269,
      "lon": 52.308461,
      "name": "Пятёрочка"
    },
    {
      "lat": 55.752805,
      "lon": 52.399936,
      "name": "Пятёрочка"
    },
    {
      "lat": 55.689182,
      "lon": 52.310966,
      "name": "Пятёрочка"
    },
    {
      "lat": 55.721807,
      "lon": 52.389443,
      "name": "Пятёрочка"
    },
    {
      "lat": 55.738277,
      "lon": 52.368758,
      "name": "Пятёрочка"
    },
    {
      "lat": 55.738067,
      "lon": 52.38515,
      "name": "Пятёрочка"
    },
    {
      "lat": 55.691083,
      "lon": 52.30951,
      "name": "Пятёрочка"
    },
    {
      "lat": 55.749417,
      "lon": 52.437275,
      "name": "Пятёрочка"
    },
    {
      "lat": 55.739267,
      "lon": 52.390017,
      "name": "Пятёрочка"
    },
    {
      "lat": 55.740351,
      "lon": 52.383204,
      "name": "Пятёрочка"
    },
    {
      "lat": 55.758266,
      "lon": 52.456815,
      "name": "Пятёрочка"
    },
    {
      "lat": 55.747496,
      "lon": 52.42732,
      "name": "Пятёрочка"
    },
    {
      "lat": 55.745117,
      "lon": 52.423146,
      "name": "Пятёрочка"
    },
    {
      "lat": 55.720695,
      "lon": 52.364244,
      "name": "Пятёрочка"
    },
    {
      "lat": 55.759967,
      "lon": 52.456182,
      "name": "Пятёрочка"
    },
    {
      "lat": 55.751329,
      "lon": 52.447649,
      "name": "Пятёрочка"
    },
    {
      "lat": 55.751359,
      "lon": 52.433962,
      "name": "Пятёрочка"
    },
    {
      "lat": 55.746998,
      "lon": 52.41615,
      "name": "Пятёрочка"
    },
    {
      "lat": 55.737967,
      "lon": 52.42843,
      "name": "Пятёрочка"
    },
    {
      "lat": 55.755072,
      "lon": 52.431468,
      "name": "Пятёрочка"
    },
    {
      "lat": 55.676537,
      "lon": 52.330404,
      "name": "Пятёрочка"
    },
    {
      "lat": 55.695214,
      "lon": 52.339758,
      "name": "Пятёрочка"
    },
    {
      "lat": 55.72186,
      "lon": 52.356675,
      "name": "Пятёрочка"
    },
    {
      "lat": 55.754889,
      "lon": 52.460851,
      "name": "Пятёрочка"
    },
    {
      "lat": 55.683998,
      "lon": 52.335799,
      "name": "Пятёрочка"
    },
    {
      "lat": 55.72179,
      "lon": 52.346141,
      "name": "Пятёрочка"
    },
    {
      "lat": 55.703695,
      "lon": 52.336894,
      "name": "Пятёрочка"
    },
    {
      "lat": 55.761628,
      "lon": 52.458443,
      "name": "Пятёрочка"
    },
    {
      "lat": 55.695736,
      "lon": 52.305755,
      "name": "Светофор"
    },
    {
      "lat": 55.751605,
      "lon": 52.414696,
      "name": "Пятёрочка"
    },
    {
      "lat": 55.702338,
      "lon": 52.382122,
      "name": "Пятёрочка"
    },
    {
      "lat": 55.73259,
      "lon": 52.371847,
      "name": "Пятёрочка"
    },
    {
      "lat": 55.768568,
      "lon": 52.460475,
      "name": "Пятёрочка"
    },
    {
      "lat": 55.734627,
      "lon": 52.365817,
      "name": "Пятёрочка"
    },
    {
      "lat": 55.680853,
      "lon": 52.33181,
      "name": "Пятёрочка"
    },
    {
      "lat": 55.717934,
      "lon": 52.403872,
      "name": "Пятёрочка"
    },
    {
      "lat": 55.736956,
      "lon": 52.395782,
      "name": "Пятёрочка"
    },
    {
      "lat": 55.717806,
      "lon": 52.37825,
      "name": "Пятёрочка"
    },
    {
      "lat": 55.723583,
      "lon": 52.377063,
      "name": "Пятёрочка"
    },
    {
      "lat": 55.74843,
      "lon": 52.44732,
      "name": "Пятёрочка"
    },
    {
      "lat": 55.733252,
      "lon": 52.382625,
      "name": "Пятёрочка"
    },
    {
      "lat": 55.755681,
      "lon": 52.422349,
      "name": "Пятёрочка"
    },
    {
      "lat": 55.759533,
      "lon": 52.444645,
      "name": "Пятёрочка"
    },
    {
      "lat": 55.73697,
      "lon": 52.402285,
      "name": "Пятёрочка"
    },
    {
      "lat": 55.722257,
      "lon": 52.369956,
      "name": "Пятёрочка"
    },
    {
      "lat": 55.709335,
      "lon": 52.332927,
      "name": "Пятёрочка"
    },
    {
      "lat": 55.745537,
      "lon": 52.374257,
      "name": "Пятёрочка"
    },
    {
      "lat": 55.753615,
      "lon": 52.461299,
      "name": "Пятёрочка"
    },
    {
      "lat": 55.697509,
      "lon": 52.344575,
      "name": "Пятёрочка"
    },
    {
      "lat": 55.731463,
      "lon": 52.378832,
      "name": "Пятёрочка"
    },
    {
      "lat": 55.703206,
      "lon": 52.333347,
      "name": "Пятёрочка"
    },
    {
      "lat": 55.763671,
      "lon": 52.460892,
      "name": "Пятёрочка"
    },
    {
      "lat": 55.687075,
      "lon": 52.340748,
      "name": "Пятёрочка"
    },
    {
      "lat": 55.683796,
      "lon": 52.302244,
      "name": "Пятёрочка"
    },
    {
      "lat": 55.691166,
      "lon": 52.343195,
      "name": "Пятёрочка"
    },
    {
      "lat": 55.672523,
      "lon": 52.324138,
      "name": "Пятёрочка"
    },
    {
      "lat": 55.762304,
      "lon": 52.4362,
      "name": "Пятёрочка"
    },
    {
      "lat": 55.727299,
      "lon": 52.390551,
      "name": "Пятёрочка"
    },
    {
      "lat": 55.700291,
      "lon": 52.329807,
      "name": "Пятёрочка"
    },
    {
      "lat": 55.726553,
      "lon": 52.382098,
      "name": "Пятёрочка"
    },
    {
      "lat": 55.685002,
      "lon": 52.334844,
      "name": "Пятёрочка"
    },
    {
      "lat": 55.670412,
      "lon": 52.320322,
      "name": "Пятёрочка"
    },
    {
      "lat": 55.766441,
      "lon": 52.420108,
      "name": "Магнит"
    },
    {
      "lat": 55.770515,
      "lon": 52.422529,
      "name": "Пятёрочка"
    },
    {
      "lat": 55.762316,
      "lon": 52.417221,
      "name": "Пятёрочка"
    },
    {
      "lat": 55.765906,
      "lon": 52.421039,
      "name": "Пятёрочка"
    },
    {
      "lat": 55.7459,
      "lon": 52.462882,
      "name": "Пятёрочка"
    },
    {
      "lat": 55.768754,
      "lon": 52.426916,
      "name": "Пятёрочка"
    },
    {
      "lat": 55.695017,
      "lon": 52.304598,
      "name": "Пятёрочка"
    },
    {
      "lat": 55.756984,
      "lon": 52.40795,
      "name": "Пятёрочка"
    },
    {
      "lat": 55.764697,
      "lon": 52.42984,
      "name": "Магнит"
    },
    {
      "lat": 55.763624,
      "lon": 52.425751,
      "name": "Пятёрочка"
    },
    {
      "lat": 55.682158,
      "lon": 52.340538,
      "name": "Пятёрочка"
    },
    {
      "lat": 55.738562,
      "lon": 52.388936,
      "name": "Пятёрочка"
    },
    {
      "lat": 55.745757,
      "lon": 52.424794,
      "name": "Пятёрочка"
    },
    {
      "lat": 55.673831,
      "lon": 52.326526,
      "name": "Пятёрочка"
    },
    {
      "lat": 55.763018,
      "lon": 52.429358,
      "name": "Магнит"
    },
    {
      "lat": 55.727591,
      "lon": 52.398998,
      "name": "Пятёрочка"
    },
    {
      "lat": 55.766809,
      "lon": 52.440265,
      "name": "Магнит"
    },
    {
      "lat": 55.702307,
      "lon": 52.325126,
      "name": "Пятёрочка"
    },
    {
      "lat": 55.766156,
      "lon": 52.420522,
      "name": "Чижик"
    },
    {
      "lat": 55.688857,
      "lon": 52.310478,
      "name": "Чижик"
    },
    {
      "lat": 55.757439,
      "lon": 52.437643,
      "name": "Магнит"
    },
    {
      "lat": 55.74606,
      "lon": 52.4373,
      "name": "Магнит"
    },
    {
      "lat": 55.746792,
      "lon": 52.438319,
      "name": "Пятёрочка"
    },
    {
      "lat": 55.736705,
      "lon": 52.406742,
      "name": "Магнит"
    },
    {
      "lat": 55.764702,
      "lon": 52.433939,
      "name": "Пятёрочка"
    },
    {
      "lat": 55.762894,
      "lon": 52.46105,
      "name": "Магнит"
    },
    {
      "lat": 55.699422,
      "lon": 52.349713,
      "name": "Магнит"
    },
    {
      "lat": 55.727302,
      "lon": 52.395792,
      "name": "Пятёрочка"
    },
    {
      "lat": 55.729074,
      "lon": 52.37123,
      "name": "Metro"
    },
    {
      "lat": 55.697504,
      "lon": 52.366968,
      "name": "Эссен"
    },
    {
      "lat": 55.744407,
      "lon": 52.453508,
      "name": "Лента"
    },
    {
      "lat": 55.738201,
      "lon": 52.411815,
      "name": "Магнит"
    },
    {
      "lat": 55.761688,
      "lon": 52.453067,
      "name": "Эссен"
    },
    {
      "lat": 55.735493,
      "lon": 52.387965,
      "name": "Камилла"
    },
    {
      "lat": 55.750781,
      "lon": 52.396667,
      "name": "Пятёрочка"
    },
    {
      "lat": 55.753912,
      "lon": 52.403295,
      "name": "Пятёрочка"
    },
    {
      "lat": 55.759663,
      "lon": 52.412742,
      "name": "Пятёрочка"
    },
    {
      "lat": 55.746467,
      "lon": 52.41516,
      "name": "Магнит"
    },
    {
      "lat": 55.723869,
      "lon": 52.364966,
      "name": "Челны-Хлеб № 10"
    },
    {
      "lat": 55.754215,
      "lon": 52.449513,
      "name": "Магнит"
    },
    {
      "lat": 55.738196,
      "lon": 52.397644,
      "name": "Челны-хлеб"
    },
    {
      "lat": 55.752708,
      "lon": 52.444234,
      "name": "Пятёрочка"
    },
    {
      "lat": 55.721553,
      "lon": 52.400997,
      "name": "Пятёрочка"
    },
    {
      "lat": 55.728013,
      "lon": 52.379706,
      "name": "Магнит"
    },
    {
      "lat": 55.741622,
      "lon": 52.375785,
      "name": "Пятёрочка"
    },
    {
      "lat": 55.705181,
      "lon": 52.342357,
      "name": "Лента"
    },
    {
      "lat": 55.743493,
      "lon": 52.389126,
      "name": ""
    },
    {
      "lat": 55.72504,
      "lon": 52.380661,
      "name": "Перекрёсток"
    }
  ],
  "malls": [
    {
      "lat": 55.725327,
      "lon": 52.399143,
      "name": "Изге Ай"
    },
    {
      "lat": 55.726188,
      "lon": 52.400701,
      "name": ""
    },
    {
      "lat": 55.727028,
      "lon": 52.40223,
      "name": ""
    },
    {
      "lat": 55.739755,
      "lon": 52.404992,
      "name": "Палитра"
    },
    {
      "lat": 55.730744,
      "lon": 52.392508,
      "name": "Омега"
    },
    {
      "lat": 55.736721,
      "lon": 52.39355,
      "name": "Инсайт"
    },
    {
      "lat": 55.724892,
      "lon": 52.381017,
      "name": "Торговый Квартал"
    },
    {
      "lat": 55.754975,
      "lon": 52.431506,
      "name": "Октябрьское"
    },
    {
      "lat": 55.724055,
      "lon": 52.424571,
      "name": "Мегастрой"
    },
    {
      "lat": 55.747047,
      "lon": 52.412763,
      "name": "Муравейник"
    },
    {
      "lat": 55.751403,
      "lon": 52.447944,
      "name": "Тэмле"
    },
    {
      "lat": 55.754414,
      "lon": 52.452732,
      "name": "Кама"
    },
    {
      "lat": 55.715984,
      "lon": 52.400601,
      "name": "Фокс"
    },
    {
      "lat": 55.737143,
      "lon": 52.417679,
      "name": "Джумба"
    },
    {
      "lat": 55.745165,
      "lon": 52.379751,
      "name": "Сити Молл"
    },
    {
      "lat": 55.743558,
      "lon": 52.432922,
      "name": "Тулпар"
    },
    {
      "lat": 55.742309,
      "lon": 52.430992,
      "name": "Кама"
    },
    {
      "lat": 55.768208,
      "lon": 52.427831,
      "name": "Антарес"
    },
    {
      "lat": 55.71776,
      "lon": 52.382188,
      "name": "Фламинго"
    },
    {
      "lat": 55.72848,
      "lon": 52.379745,
      "name": "Кентавр"
    },
    {
      "lat": 55.733136,
      "lon": 52.382484,
      "name": ""
    },
    {
      "lat": 55.735533,
      "lon": 52.383669,
      "name": ""
    },
    {
      "lat": 55.737962,
      "lon": 52.384964,
      "name": "Меркурий"
    },
    {
      "lat": 55.736652,
      "lon": 52.372652,
      "name": ""
    },
    {
      "lat": 55.741306,
      "lon": 52.393222,
      "name": "Апельсин"
    },
    {
      "lat": 55.743708,
      "lon": 52.425018,
      "name": "Парус"
    },
    {
      "lat": 55.744826,
      "lon": 52.419759,
      "name": ""
    },
    {
      "lat": 55.747081,
      "lon": 52.416271,
      "name": "Бум"
    },
    {
      "lat": 55.744892,
      "lon": 52.42139,
      "name": "105"
    },
    {
      "lat": 55.744156,
      "lon": 52.421349,
      "name": "Одежда"
    },
    {
      "lat": 55.745073,
      "lon": 52.426266,
      "name": "Капитан"
    },
    {
      "lat": 55.743288,
      "lon": 52.429173,
      "name": "Центр света"
    },
    {
      "lat": 55.746571,
      "lon": 52.424925,
      "name": "Green"
    },
    {
      "lat": 55.744489,
      "lon": 52.431071,
      "name": "Дом мебели"
    },
    {
      "lat": 55.743795,
      "lon": 52.428572,
      "name": "Океан"
    },
    {
      "lat": 55.745539,
      "lon": 52.425352,
      "name": "Глобус"
    },
    {
      "lat": 55.746948,
      "lon": 52.423017,
      "name": "Панорама"
    },
    {
      "lat": 55.762249,
      "lon": 52.436143,
      "name": "ТЦ «Аврора»"
    },
    {
      "lat": 55.755377,
      "lon": 52.451216,
      "name": "ТЦ «Темп»"
    },
    {
      "lat": 55.761923,
      "lon": 52.443867,
      "name": "Челны-Хлеб"
    },
    {
      "lat": 55.7551,
      "lon": 52.411252,
      "name": "Альпак"
    },
    {
      "lat": 55.74904,
      "lon": 52.400759,
      "name": "На Пушкинской"
    },
    {
      "lat": 55.748713,
      "lon": 52.411483,
      "name": ""
    },
    {
      "lat": 55.749179,
      "lon": 52.400407,
      "name": "Кызыл Яр"
    },
    {
      "lat": 55.735896,
      "lon": 52.376518,
      "name": "Чулман"
    },
    {
      "lat": 55.7422,
      "lon": 52.38713,
      "name": "Юмарт"
    },
    {
      "lat": 55.735731,
      "lon": 52.367687,
      "name": ""
    },
    {
      "lat": 55.690184,
      "lon": 52.336827,
      "name": "Агава"
    },
    {
      "lat": 55.693039,
      "lon": 52.335744,
      "name": ""
    },
    {
      "lat": 55.69761,
      "lon": 52.34451,
      "name": "Орбита"
    },
    {
      "lat": 55.700298,
      "lon": 52.35239,
      "name": "Восток"
    },
    {
      "lat": 55.726429,
      "lon": 52.417417,
      "name": "ТЦ «Авто ГУМ»"
    },
    {
      "lat": 55.68738,
      "lon": 52.3057,
      "name": "Челны"
    },
    {
      "lat": 55.698098,
      "lon": 52.313573,
      "name": "Центральный ряд"
    },
    {
      "lat": 55.693002,
      "lon": 52.30845,
      "name": "Универсам"
    },
    {
      "lat": 55.746631,
      "lon": 52.419882,
      "name": "Энтузиаст"
    },
    {
      "lat": 55.768833,
      "lon": 52.42703,
      "name": "Татарстан"
    },
    {
      "lat": 55.753329,
      "lon": 52.441863,
      "name": "Халял-Центр"
    },
    {
      "lat": 55.74201,
      "lon": 52.373736,
      "name": "Фрэско 24"
    },
    {
      "lat": 55.695574,
      "lon": 52.307556,
      "name": "Меховой центр Барс"
    },
    {
      "lat": 55.695453,
      "lon": 52.306738,
      "name": "Барс"
    },
    {
      "lat": 55.742597,
      "lon": 52.431259,
      "name": "Кама"
    },
    {
      "lat": 55.750222,
      "lon": 52.430877,
      "name": "Кама"
    },
    {
      "lat": 55.752358,
      "lon": 52.426339,
      "name": "ТЦ «Восток»"
    },
    {
      "lat": 55.746928,
      "lon": 52.40819,
      "name": "Урожай"
    },
    {
      "lat": 55.743382,
      "lon": 52.435715,
      "name": "Автозаводский"
    },
    {
      "lat": 55.700966,
      "lon": 52.401914,
      "name": "Шёлковый путь"
    },
    {
      "lat": 55.754417,
      "lon": 52.410289,
      "name": "ТЦ «На Сююмбике»"
    },
    {
      "lat": 55.729665,
      "lon": 52.394772,
      "name": "На Мира"
    },
    {
      "lat": 55.693908,
      "lon": 52.308659,
      "name": "Радужный"
    },
    {
      "lat": 55.751909,
      "lon": 52.40934,
      "name": "Sunrise City"
    },
    {
      "lat": 55.719281,
      "lon": 52.410687,
      "name": "Регул"
    },
    {
      "lat": 55.745004,
      "lon": 52.422905,
      "name": "Первый"
    },
    {
      "lat": 55.713543,
      "lon": 52.397756,
      "name": "Королёв"
    },
    {
      "lat": 55.746927,
      "lon": 52.428692,
      "name": "Бульвар"
    },
    {
      "lat": 55.744676,
      "lon": 52.380726,
      "name": "Куб"
    },
    {
      "lat": 55.722866,
      "lon": 52.410048,
      "name": "Мебель и точка!"
    },
    {
      "lat": 55.702011,
      "lon": 52.381818,
      "name": "Казанский"
    },
    {
      "lat": 55.754031,
      "lon": 52.432265,
      "name": "ТЦ «Дубрава»"
    }
  ],
  "parks": [
    {
      "lat": 55.723158,
      "lon": 52.386821,
      "name": ""
    },
    {
      "lat": 55.70091,
      "lon": 52.347223,
      "name": "Парк имени Марата Бибишева"
    },
    {
      "lat": 55.753136,
      "lon": 52.421651,
      "name": "Парк Победы"
    },
    {
      "lat": 55.695378,
      "lon": 52.310378,
      "name": "парк имени Мусы Джалиля"
    },
    {
      "lat": 55.696504,
      "lon": 52.311659,
      "name": ""
    },
    {
      "lat": 55.748875,
      "lon": 52.429463,
      "name": "Шишкинский бульвар"
    },
    {
      "lat": 55.735907,
      "lon": 52.403497,
      "name": "сквер им. Габдуллы Тукая"
    },